,City,Lat,Lon,Max Temp,Humidity,Cloudiness,Wind Speed,Country,Date
0,Biltine,14.5333,20.9167,96.26,9,69,9.31,TD,1650735460
1,Umeå,63.8284,20.2597,42.73,52,0,6.91,SE,1650735460
2,Barrow,71.2906,-156.7887,15.82,86,100,4.61,US,1650734821
3,Songjianghe,42.1859,127.479,52.86,27,47,9.78,CN,1650735461
4,Kanniyākumāri,8.0833,77.5667,82.99,78,93,5.17,IN,1650735461
5,Pijao,4.3342,-75.7035,72.59,61,40,3.44,CO,1650735462
6,East London,-33.0153,27.9116,63.12,93,100,4.83,ZA,1650734960
7,Albany,42.6001,-73.9662,58.64,33,56,1.01,US,1650735378
8,Punta Arenas,-53.15,-70.9167,46.42,87,100,9.22,CL,1650735265
9,Santa Cruz de la Sierra,-17.8,-63.1667,87.85,62,75,14.97,BO,1650735173
10,Pīpri,19.8,75.5333,94.98,20,96,6.29,IN,1650735462
11,Ushuaia,-54.8,-68.3,46.06,66,75,9.22,AR,1650735463
12,Vigía del Fuerte,6.5789,-76.8863,90.32,53,42,1.72,CO,1650735463
13,Norman Wells,65.282,-126.8329,28.44,54,0,11.5,CA,1650734965
14,Busselton,-33.65,115.3333,58.96,70,17,11.88,AU,1650735287
15,Misratah,32.3754,15.0925,65.14,62,0,11.86,LY,1650735463
16,Klaksvík,62.2266,-6.589,47.32,81,100,19.89,FO,1650735336
17,Mnogovershinnyy,53.9353,139.9242,14.4,93,49,1.95,RU,1650735464
18,Atuona,-9.8,-139.0333,78.91,75,18,14.14,PF,1650734949
19,Itarema,-2.9248,-39.9167,74.5,96,97,8.12,BR,1650735464
20,Butaritari,3.0707,172.7902,81.59,74,50,16.28,KI,1650734958
21,Lagoa,39.05,-27.9833,57.18,61,67,24.58,PT,1650735034
22,Narsaq,60.9167,-46.05,46.62,95,100,5.06,GL,1650735464
23,Omsukchan,62.5333,155.8,-1.01,100,86,3.89,RU,1650735465
24,Avarua,-21.2078,-159.775,73.45,94,75,11.5,CK,1650735175
25,Bilma,18.6853,12.9164,97.56,11,3,9.53,NE,1650735465
26,Mahébourg,-20.4081,57.7,75.49,78,75,17.27,MU,1650735465
27,Jamestown,42.097,-79.2353,65.95,47,100,7.0,US,1650735466
28,Qaanaaq,77.484,-69.3632,4.98,80,76,5.99,GL,1650735288
29,Newcastle,-32.9272,151.7765,60.66,98,75,0.0,AU,1650735429
30,Sibolga,1.7427,98.7792,78.57,88,100,3.13,ID,1650735466
31,Arraial do Cabo,-22.9661,-42.0278,93.16,38,0,12.66,BR,1650735437
32,Rikitea,-23.1203,-134.9692,75.18,74,100,4.99,PF,1650735467
33,Ribeira Grande,38.5167,-28.7,61.2,63,40,17.27,PT,1650735467
34,Auki,-8.7676,160.7034,76.28,85,60,3.38,SB,1650735467
35,Teya,60.3778,92.6267,22.98,97,100,3.0,RU,1650735467
36,Mataura,-46.1927,168.8643,51.48,97,100,8.61,NZ,1650735263
37,Oleksandrivka,46.8383,32.7612,52.56,73,97,5.59,UA,1650735468
38,Beloha,-25.1667,45.05,76.35,77,100,8.66,MG,1650735011
39,Malé,4.1748,73.5089,85.95,74,20,9.22,MV,1650735468
40,Navahrudak,53.6,25.8333,39.78,88,83,2.53,BY,1650735469
41,Tuktoyaktuk,69.4541,-133.0374,17.6,67,0,12.66,CA,1650735469
42,Caconda,-13.7333,15.0667,60.01,68,99,3.24,AO,1650735469
43,Turukhansk,65.8167,87.9833,11.34,97,98,7.52,RU,1650735470
44,Altayskoye,51.9533,85.3325,32.52,84,100,4.94,RU,1650735470
45,Kargasok,59.0556,80.8572,30.09,97,100,15.12,RU,1650735471
46,Cape Town,-33.9258,18.4232,59.41,64,0,18.41,ZA,1650734973
47,Havøysund,70.9963,24.6622,41.23,96,100,23.58,NO,1650735031
48,Hilo,19.7297,-155.09,75.61,86,40,5.75,US,1650735241
49,Vaini,-21.2,-175.2,66.36,100,75,0.0,TO,1650734946
50,Lompoc,34.6391,-120.4579,69.69,54,0,16.11,US,1650735318
51,Shihezi,44.3,86.0333,61.38,34,2,8.19,CN,1650735472
52,Airai,-8.9266,125.4092,59.02,73,22,2.28,TL,1650734947
53,San Isidro,-12.1167,-77.05,67.59,77,40,8.05,PE,1650735472
54,Kapaa,22.0752,-159.319,75.47,89,20,13.8,US,1650735473
55,Estelle,29.8458,-90.1067,84.0,64,40,20.71,US,1650735473
56,Capaci,38.1711,13.2393,69.4,50,0,10.36,IT,1650735473
57,Lázaro Cárdenas,17.9583,-102.2,84.52,52,3,10.33,MX,1650735473
58,São Filipe,14.8961,-24.4956,75.18,73,4,7.31,CV,1650735097
59,Sørland,67.667,12.6934,41.41,78,12,8.57,NO,1650734949
60,Sept-Îles,50.2001,-66.3821,37.06,41,40,14.97,CA,1650735474
61,Khatanga,71.9667,102.5,-11.24,100,23,1.95,RU,1650735474
62,New Norfolk,-42.7826,147.0587,49.5,78,83,2.89,AU,1650735283
63,Broome,42.2506,-75.833,62.53,40,100,4.61,US,1650735474
64,Meulaboh,4.1363,96.1285,78.3,88,89,1.32,ID,1650735475
65,Portland,45.5234,-122.6762,57.45,76,75,5.75,US,1650735401
66,Talnakh,69.4865,88.3972,-3.28,100,99,4.7,RU,1650735475
67,Caravelas,-17.7125,-39.2481,85.1,62,37,8.9,BR,1650735394
68,Hobart,-42.8794,147.3294,49.86,85,92,9.22,AU,1650734973
69,Ponta do Sol,32.6667,-17.1,67.01,72,99,8.75,PT,1650735010
70,Torbay,47.6666,-52.7314,41.29,82,100,14.97,CA,1650735051
71,Kruisfontein,-34.0033,24.7314,59.88,89,94,1.41,ZA,1650735031
72,Kaitangata,-46.2817,169.8464,51.19,91,100,12.71,NZ,1650734964
73,Bredasdorp,-34.5322,20.0403,58.89,66,79,8.08,ZA,1650735272
74,Quebrangulo,-9.3189,-36.4711,87.58,43,90,15.08,BR,1650735476
75,Vostok,46.4856,135.8833,36.07,73,99,6.73,RU,1650735476
76,Tazovsky,67.4667,78.7,-0.87,100,95,6.15,RU,1650735083
77,Amudat,1.95,34.95,75.79,54,67,5.7,UG,1650735477
78,Venado Tuerto,-33.7456,-61.9688,73.76,33,10,16.93,AR,1650735385
79,Walla Walla,46.0646,-118.343,55.87,59,75,13.0,US,1650735348
80,Platnirovskaya,45.3953,39.3842,58.95,70,68,9.17,RU,1650735477
81,Hünfeld,50.6797,9.7673,60.44,63,99,11.56,DE,1650735245
82,Tuatapere,-46.1333,167.6833,52.11,90,100,11.52,NZ,1650735399
83,Yellowknife,62.456,-114.3525,19.92,63,0,6.91,CA,1650735477
84,Lavrentiya,65.5833,-171.0,14.0,86,19,5.64,RU,1650734958
85,Río Gallegos,-51.6226,-69.2181,46.45,81,100,10.36,AR,1650735349
86,Antalaha,-14.9003,50.2788,74.59,91,79,5.95,MG,1650735403
87,Cuamba,-14.8031,36.5372,69.04,95,80,5.68,MZ,1650735478
88,Marathon,44.9,-89.7668,70.84,72,20,11.5,US,1650735478
89,Shingū,33.7333,135.9833,61.95,89,100,3.8,JP,1650735297
90,Kloulklubed,7.0419,134.2556,75.7,72,89,6.11,PW,1650735478
91,Solginskiy,61.05,41.3428,35.13,86,100,3.49,RU,1650735479
92,Mar del Plata,-38.0023,-57.5575,74.95,49,0,28.77,AR,1650735000
93,Camacupa,-12.0167,17.4833,61.86,69,100,4.92,AO,1650735479
94,Hobyo,5.3505,48.5268,84.07,72,49,13.71,SO,1650735479
95,Saint George,37.1041,-113.5841,62.64,43,0,5.01,US,1650735188
96,Sitka,57.0531,-135.33,48.09,57,100,17.27,US,1650735338
97,Camden,39.7835,-74.9663,65.86,39,77,1.01,US,1650735416
98,Port Alfred,-33.5906,26.891,60.19,96,100,8.14,ZA,1650735480
99,Upernavik,72.7868,-56.1549,12.79,85,100,11.1,GL,1650735480
100,Nizwá,22.9333,57.5333,84.56,23,55,4.59,OM,1650735481
101,Kiama,-34.6833,150.8667,57.38,92,19,4.09,AU,1650735481
102,Nioro,13.35,-15.75,106.93,7,25,7.9,GM,1650735481
103,Laas,46.6166,10.7002,52.68,97,97,6.29,IT,1650734968
104,Tiksi,71.6872,128.8694,0.46,100,100,2.57,RU,1650735481
105,Lewiston,44.1003,-70.2148,58.32,19,20,13.8,US,1650735453
106,George Town,5.4112,100.3354,84.13,88,20,5.01,MY,1650735300
107,Karasuk,53.7377,78.0403,24.96,44,59,14.9,RU,1650735482
108,Makakilo City,21.3469,-158.0858,74.19,79,75,6.91,US,1650735482
109,Owensboro,37.7742,-87.1133,82.02,57,85,16.4,US,1650735274
110,Poum,-20.2333,164.0167,76.1,74,77,9.62,NC,1650735230
111,Nome,64.5011,-165.4064,35.17,75,100,0.0,US,1650735483
112,Bluff,-46.6,168.3333,51.8,78,100,20.83,NZ,1650735282
113,Nanortalik,60.1432,-45.2371,35.33,98,100,3.98,GL,1650735099
114,Cayenne,4.9333,-52.3333,82.44,1,75,6.91,GF,1650735483
115,Oranjemund,-28.55,16.4333,56.25,85,2,17.56,NA,1650735484
116,Santa Maria,-29.6842,-53.8069,65.5,59,20,10.36,BR,1650735484
117,Bonanza,14.0289,-84.591,89.51,44,61,4.83,NI,1650735484
118,Farafangana,-22.8167,47.8333,75.2,88,100,14.25,MG,1650735485
119,Hofn,64.2539,-15.2082,44.92,83,1,6.2,IS,1650735068
120,Thompson,55.7435,-97.8558,42.96,39,75,9.22,CA,1650735373
121,Bud,39.447,-86.1758,82.42,43,99,16.8,US,1650735485
122,Shimoda,34.6667,138.95,64.11,87,100,1.7,JP,1650735294
123,San Cristobal,7.7669,-72.225,75.38,74,64,1.23,VE,1650735036
124,Valença,-13.3703,-39.0731,84.9,59,20,6.04,BR,1650735485
125,Port Hardy,50.6996,-127.4199,46.58,81,100,10.36,CA,1650735090
126,Mount Gambier,-37.8333,140.7667,46.31,93,0,5.75,AU,1650735486
127,Laguna,38.421,-121.4238,65.05,58,0,11.5,US,1650735241
128,Iquitos,-3.7481,-73.2472,91.44,62,75,4.61,PE,1650735296
129,Laudio-Llodio,43.1432,-2.962,51.91,78,100,3.44,ES,1650735486
130,Kutum,14.2,24.6667,83.43,13,34,5.12,SD,1650735404
131,Camacha,33.0833,-16.3333,62.02,52,40,8.05,PT,1650735487
132,Vila Velha,-20.3297,-40.2925,91.35,62,0,16.11,BR,1650735040
133,Castro,-24.7911,-50.0119,65.64,86,100,9.64,BR,1650735487
134,Hong Kong,22.2855,114.1577,78.96,89,9,4.0,HK,1650735218
135,Alice Springs,-23.7,133.8833,69.22,32,40,6.91,AU,1650735065
136,Goderich,43.7501,-81.7165,55.72,58,69,20.71,CA,1650735236
137,Naviraí,-23.065,-54.1906,78.89,73,100,5.39,BR,1650735488
138,Fortuna,40.5982,-124.1573,51.93,93,100,1.01,US,1650734797
139,Pisco,-13.7,-76.2167,67.01,88,75,9.22,PE,1650735217
140,Lovozero,68.005,35.0117,31.32,93,97,6.91,RU,1650735488
141,Dubai,25.2582,55.3047,84.13,61,0,4.61,AE,1650735211
142,Kiryat Gat,31.61,34.7642,73.4,100,18,2.77,IL,1650735489
143,Samarai,-10.6167,150.6667,81.73,79,58,9.98,PG,1650735489
144,Akdepe,42.0551,59.3788,68.09,38,47,8.32,TM,1650735489
145,Massaguet,12.4755,15.4365,99.23,18,95,6.51,TD,1650735490
146,Kavaratti,10.5669,72.642,85.15,71,96,8.05,IN,1650735490
147,Ubari,26.5921,12.7805,81.73,10,1,10.87,LY,1650735490
148,Prymors'k,46.7348,36.3443,53.47,72,99,15.88,UA,1650735491
149,Newport,51.5877,-2.9984,59.83,85,47,20.51,GB,1650735491
150,Saskatoon,52.1168,-106.6345,44.58,75,75,19.57,CA,1650735401
151,Bambous Virieux,-20.3428,57.7575,75.45,78,75,17.27,MU,1650735491
152,Kédougou,12.5579,-12.1743,106.38,13,0,0.0,SN,1650735492
153,Beisfjord,68.3751,17.5988,46.45,78,13,0.83,NO,1650735492
154,Saurimo,-9.6608,20.3916,69.76,75,96,2.53,AO,1650735492
155,Beringovskiy,63.05,179.3167,21.18,96,100,2.75,RU,1650735493
156,Hermanus,-34.4187,19.2345,59.81,64,43,9.01,ZA,1650735493
157,Niksar,40.5917,36.9517,65.26,60,11,2.28,TR,1650735493
158,Cherskiy,68.75,161.3,11.37,97,98,2.35,RU,1650735399
159,Lüderitz,-26.6481,15.1594,58.82,75,0,26.28,NA,1650735493
160,Honiara,-9.4333,159.95,77.58,88,73,3.2,SB,1650735301
161,Isangel,-19.55,169.2667,77.63,77,84,12.3,VU,1650735433
162,Pemba,-12.974,40.5178,81.3,83,75,18.41,MZ,1650735494
163,Romitan,39.9343,64.3814,69.75,60,0,6.91,UZ,1650735494
164,Saint-Philippe,-21.3585,55.7679,74.79,80,39,11.25,RE,1650735320
165,Vila Praia de Âncora,41.811,-8.8526,58.1,70,9,9.82,PT,1650735495
166,Oleksandrivka,48.9634,32.2349,52.54,70,98,15.41,UA,1650735033
167,Tasiilaq,65.6145,-37.6368,42.96,93,92,3.67,GL,1650734976
168,Ambon City,-3.6954,128.1814,82.54,78,40,4.61,ID,1650735281
169,Qaqortoq,60.7167,-46.0333,35.62,99,100,4.63,GL,1650735495
170,Bella Union,-30.2752,-57.6007,68.02,45,0,4.74,UY,1650735496
171,Khanpur,28.6453,70.6567,89.26,10,0,5.91,PK,1650735496
172,Jacareacanga,-6.2222,-57.7528,86.81,65,99,2.46,BR,1650735496
173,Bathsheba,13.2167,-59.5167,86.61,54,40,18.41,BB,1650735006
174,Williston,48.147,-103.618,34.54,95,100,11.99,US,1650734953
175,Severo-Kuril'sk,50.6789,156.125,35.35,98,100,10.98,RU,1650735272
176,Saskylakh,71.9167,114.0833,-12.87,100,83,2.71,RU,1650735497
177,Ostrovnoy,68.0531,39.5131,33.21,98,83,8.61,RU,1650735497
178,Muroto-misakicho,33.2833,134.15,62.37,90,100,3.58,JP,1650735497
179,Kabo,7.6994,18.629,88.03,42,61,6.64,CF,1650735497
180,Batagay-Alyta,67.8006,130.4114,2.5,97,100,4.43,RU,1650735498
181,Bethel,41.3712,-73.414,65.17,41,100,6.91,US,1650735498
182,Hokitika,-42.7167,170.9667,54.55,86,97,8.39,NZ,1650735498
183,Muravlenko,63.7898,74.523,0.37,98,74,6.49,RU,1650735499
184,Kang,-23.6752,22.7876,68.61,47,13,7.56,BW,1650735499
185,Longyearbyen,78.2186,15.6401,21.04,79,75,8.05,SJ,1650735057
186,Mehamn,71.0357,27.8492,38.34,93,99,16.82,NO,1650735499
187,Dingle,10.9995,122.6711,76.82,87,52,6.11,PH,1650735314
188,Saint Paul Harbor,57.79,-152.4072,42.31,81,100,13.8,US,1650734951
189,Nanchang,28.6833,115.8833,70.43,83,9,2.21,CN,1650735500
190,Lapeer,43.0514,-83.3188,75.79,46,0,9.22,US,1650735500
191,Kenai,60.5544,-151.2583,44.69,81,20,10.36,US,1650734962
192,Marang,5.2056,103.2059,80.51,83,70,1.72,MY,1650735501
193,Velsk,61.0701,42.0983,35.49,88,100,2.3,RU,1650735501
194,Dwārka,22.2394,68.9678,81.82,75,2,10.96,IN,1650735501
195,Talcahuano,-36.7167,-73.1167,56.88,94,100,6.91,CL,1650735501
196,Qasigiannguit,68.8193,-51.1922,26.85,87,100,3.11,GL,1650735502
197,El Alto,-4.2714,-81.2147,82.06,77,59,6.26,PE,1650735502
198,Miranda,3.2499,-76.2281,78.93,64,52,3.89,CO,1650735502
199,Tymovskoye,50.8456,142.655,18.01,97,89,3.04,RU,1650735503
200,Waipawa,-41.4122,175.5153,46.26,87,15,5.61,NZ,1650735503
201,Turangi,-39.0,175.9333,44.42,94,32,1.7,NZ,1650735503
202,Parabel',58.6978,81.4825,23.59,96,100,8.37,RU,1650735504
203,Gushikawa,26.3544,127.8686,76.62,91,100,6.91,JP,1650735504
204,Olafsvik,64.8945,-23.7142,46.18,85,45,4.36,IS,1650735504
205,Rehoboth,-23.3167,17.0833,68.25,32,4,15.73,NA,1650735305
206,Morondava,-20.2833,44.2833,75.4,90,100,5.5,MG,1650735504
207,Şabyā,17.1495,42.6254,87.42,53,3,0.85,SA,1650735505
208,Panjakent,39.4952,67.6093,65.62,51,98,3.06,TJ,1650735505
209,Imbituba,-28.24,-48.6703,76.86,72,94,14.56,BR,1650735458
210,Grindavik,63.8424,-22.4338,46.87,76,100,5.75,IS,1650735344
211,Panzhihua,26.5851,101.7128,68.79,68,32,0.89,CN,1650735505
212,Pangnirtung,66.1451,-65.7125,10.4,67,0,3.44,CA,1650735274
213,Souillac,-20.5167,57.5167,75.58,78,75,17.27,MU,1650735506
214,Cidreira,-30.1811,-50.2056,67.5,55,33,14.29,BR,1650735506
215,Krasnoye Selo,59.7383,30.0894,45.37,50,0,11.18,RU,1650735507
216,Lata,40.1629,-8.3327,56.03,66,44,8.32,PT,1650735507
217,Snezhnogorsk,69.1933,33.2531,37.18,86,97,13.58,RU,1650735507
218,Bengkulu,-3.8004,102.2655,75.9,93,100,7.36,ID,1650734919
219,Nago,26.5881,127.9761,77.45,95,98,10.27,JP,1650735340
220,Ushtobe,45.2514,77.9838,65.64,49,99,10.63,KZ,1650735508
221,Hasaki,35.7333,140.8333,63.0,74,100,14.72,JP,1650735508
222,Buin,-33.7333,-70.75,72.05,29,2,6.4,CL,1650735508
223,Faya,18.3851,42.4509,64.51,50,35,4.83,SA,1650735111
224,Baracoa,20.3467,-74.4958,78.17,78,100,9.89,CU,1650735509
225,Chokurdakh,70.6333,147.9167,-9.15,100,100,2.35,RU,1650735503
226,Esperance,-33.8667,121.9,57.04,86,77,11.36,AU,1650734820
227,Coahuayana Viejo,18.7333,-103.6833,90.34,33,3,7.38,MX,1650735509
228,Clyde River,70.4692,-68.5914,-0.17,71,0,0.0,CA,1650735033
229,Baykit,61.67,96.37,20.08,94,52,3.58,RU,1650735319
230,Wasilla,61.5814,-149.4394,47.28,51,75,11.5,US,1650735510
231,Zarubino,42.63,131.0922,42.82,93,3,4.23,RU,1650735510
232,Papar,5.7333,115.9333,77.0,90,76,4.81,MY,1650735510
233,Departamento de Maldonado,-34.6667,-54.9167,67.39,30,2,10.18,UY,1650735510
234,Aykhal,66.0,111.5,2.21,100,81,3.87,RU,1650735511
235,Puerto Ayora,-0.7393,-90.3518,76.96,79,34,9.53,EC,1650735212
236,Port Elizabeth,-33.918,25.5701,62.31,96,75,3.44,ZA,1650734650
237,Sobolevo,54.4299,31.8996,46.09,90,100,13.29,RU,1650735511
238,Lensk,60.7253,114.9278,17.44,97,76,1.54,RU,1650735511
239,Vardø,70.3705,31.1107,37.99,91,100,18.03,NO,1650735328
240,Bagdarin,54.4333,113.6,22.28,60,49,3.71,RU,1650735512
241,Nikolskoye,59.7035,30.7861,46.29,74,100,9.48,RU,1650734978
242,Deputatsky,69.3,139.9,-5.55,100,99,3.02,RU,1650735237
243,Yeppoon,-23.1333,150.7333,69.58,81,89,21.05,AU,1650735512
244,Mandan,46.8267,-100.8896,35.58,94,100,20.71,US,1650735512
245,Lugovoy,42.9472,72.7644,60.78,63,83,5.12,KZ,1650735513
246,Pudozh,61.8099,36.5345,33.13,93,100,4.59,RU,1650735513
247,Kyaukse,21.6,96.1333,92.46,31,68,4.03,MM,1650735513
248,San Patricio,28.017,-97.5169,85.17,65,94,22.24,US,1650735229
249,Isla Mujeres,21.2311,-86.731,84.25,73,9,12.41,MX,1650735514
250,Coos Bay,43.3665,-124.2179,58.32,90,0,0.0,US,1650735452
251,Mount Isa,-20.7333,139.5,67.77,100,100,6.91,AU,1650735514
252,Coquimbo,-29.9533,-71.3436,58.73,88,75,13.8,CL,1650735514
253,Grand Gaube,-20.0064,57.6608,75.6,73,47,5.99,MU,1650735515
254,Guerrero Negro,27.9769,-114.0611,63.45,55,0,21.23,MX,1650734729
255,Sai Buri,6.7013,101.6168,80.2,85,91,4.79,TH,1650735515
256,Schkeuditz,51.4,12.2167,59.07,47,0,14.97,DE,1650735515
257,Jinxi,30.4323,116.2922,67.01,86,1,2.21,CN,1650735516
258,La Ronge,55.1001,-105.2842,44.85,49,0,5.75,CA,1650735516
259,Chui,-33.6971,-53.4616,68.14,35,0,9.95,UY,1650735516
260,Ucluelet,48.9329,-125.5528,49.08,87,81,1.01,CA,1650735516
261,Mahanoro,-19.9,48.8,74.57,93,100,5.99,MG,1650735517
262,Merauke,-8.4667,140.3333,80.15,82,78,5.82,ID,1650735064
263,Angoram,-4.0625,144.0661,72.14,98,95,1.9,PG,1650735517
264,Provideniya,64.3833,-173.3,25.14,68,15,3.22,RU,1650735286
265,Cintalapa,16.6951,-93.7272,92.57,35,40,3.6,MX,1650735518
266,Margate,51.3813,1.3862,56.1,80,91,8.99,GB,1650735518
267,Avera,33.194,-82.5271,79.38,50,11,9.78,US,1650735518
268,Paita,-5.0892,-81.1144,74.86,71,12,10.56,PE,1650735518
269,Vilhena,-12.7406,-60.1458,82.62,69,75,2.3,BR,1650735519
270,Ootmarsum,52.4076,6.8969,62.4,36,16,15.01,DE,1650735519
271,Turaif,31.6725,38.6637,68.25,52,75,27.63,SA,1650735519
272,Aitape,-3.1374,142.3475,76.62,91,95,3.87,PG,1650735520
273,Gavalou,38.5333,21.5333,64.53,84,14,1.66,GR,1650735520
274,Mattru,7.6244,-11.8332,87.55,59,57,8.61,SL,1650735520
275,Mandalgovi,45.7625,106.2708,43.29,33,45,6.91,MN,1650735521
276,Te Anau,-45.4167,167.7167,50.63,92,100,4.29,NZ,1650735056
277,Sfântu Gheorghe,45.8667,25.7833,52.83,85,90,3.06,RO,1650735521
278,Zyryanovsk,49.7386,84.2719,36.79,68,35,2.1,KZ,1650735521
279,Mayo,38.8876,-76.5119,77.13,47,100,4.61,US,1650735522
280,Saldanha,-33.0117,17.9442,57.25,71,0,23.62,ZA,1650735522
281,Bhīnmāl,25.0,72.25,84.09,11,1,7.67,IN,1650735522
282,Harper,4.375,-7.7169,82.45,76,98,7.2,LR,1650735522
283,Matara,5.9485,80.5353,79.54,84,76,4.54,LK,1650735523
284,Inhambane,-23.865,35.3833,75.18,88,20,0.0,MZ,1650735523
285,Victor Harbor,-35.5667,138.6167,58.68,83,40,10.0,AU,1650735523
286,Sioux Lookout,50.1001,-91.917,35.67,93,100,10.36,CA,1650735524
287,Dondo,-19.6094,34.7431,78.31,92,4,3.89,MZ,1650735524
288,Novyye Lyady,58.0536,56.6039,42.04,87,46,2.44,RU,1650735524
289,Richards Bay,-28.783,32.0377,69.15,91,32,3.04,ZA,1650735524
290,Miles City,46.4083,-105.8406,32.97,93,100,25.32,US,1650735525
291,Adrar,20.5022,-10.0711,88.79,10,2,14.36,MR,1650735525
292,Hithadhoo,-0.6,73.0833,85.28,71,82,10.51,MV,1650735024
293,Havelock,34.8791,-76.9013,78.98,66,0,7.0,US,1650735525
294,Solnechnyy,50.7214,136.6319,29.62,98,100,4.32,RU,1650735526
295,Birao,10.2849,22.7882,94.89,20,55,3.74,CF,1650735526
296,Port Macquarie,-31.4333,152.9167,58.89,94,40,3.44,AU,1650735453
297,Santa Rosa,14.3122,121.1114,84.18,70,10,6.04,PH,1650735204
298,Bridlington,54.0831,-0.1919,52.9,89,1,22.53,GB,1650735526
299,Tete,-16.1564,33.5867,80.69,69,20,4.61,MZ,1650735527
300,Varhaug,58.6147,5.6457,54.79,74,97,9.55,NO,1650735079
301,Yerbogachën,61.2767,108.0108,21.47,95,99,3.62,RU,1650735527
302,Ilulissat,69.2167,-51.1,26.62,93,75,9.22,GL,1650735089
303,Marsh Harbour,26.5412,-77.0636,74.52,66,27,19.93,BS,1650735332
304,Henties Bay,-22.116,14.2845,60.1,87,18,13.18,NA,1650735527
305,Half Moon Bay,37.4636,-122.4286,64.06,69,0,3.44,US,1650734969
306,Caçapava do Sul,-30.5122,-53.4914,65.89,36,1,6.11,BR,1650735528
307,Alamor,-4.0181,-80.0197,69.4,78,59,4.97,EC,1650735528
308,Cabo San Lucas,22.8909,-109.9124,81.7,63,0,6.91,MX,1650735238
309,Port Hedland,-20.3167,118.5667,71.65,68,2,6.91,AU,1650735528
310,Vawkavysk,53.1561,24.4513,39.92,94,99,4.18,BY,1650735529
311,Alikalia,9.1667,-11.4,80.17,67,86,3.06,SL,1650735529
312,Agropoli,40.3469,14.9966,57.43,89,0,3.22,IT,1650735529
313,Vredendal,-31.6683,18.5012,58.12,69,0,18.45,ZA,1650735530
314,Ketchikan,55.3422,-131.6461,43.27,87,100,18.41,US,1650735530
315,Ipanema,-30.1391,-51.2244,71.65,58,40,19.57,BR,1650735530
316,Touros,-5.1989,-35.4608,79.52,85,100,12.62,BR,1650735086
317,Bulgan,48.8125,103.5347,35.26,46,69,3.27,MN,1650735310
318,Arak,34.0917,49.6892,63.86,17,96,1.19,IR,1650735531
319,Lebu,-37.6167,-73.65,58.06,73,35,7.38,CL,1650735531
320,Umluj,25.0213,37.2685,79.14,66,3,1.66,SA,1650735531
321,Elko,41.0002,-115.5012,43.74,55,11,8.99,US,1650735532
322,Vao,-22.6667,167.4833,74.52,75,69,24.87,NC,1650735532
323,La Santisima Trinidad,-14.8333,-64.9,89.58,66,20,11.5,BO,1650735532
324,Tougue,11.4667,-11.6,95.85,13,74,6.11,GN,1650735532
325,Nouadhibou,20.931,-17.0347,73.38,56,9,19.57,MR,1650735323
326,Bela,25.9333,81.9833,89.53,14,0,7.45,IN,1650735533
327,Harbour Breton,47.4833,-55.7983,38.97,98,100,6.93,CA,1650735533
328,San Ramon,37.7799,-121.978,64.94,65,0,4.61,US,1650735533
329,Schiffdorf,53.5333,8.65,60.26,73,5,17.67,DE,1650735341
330,Lincoln,40.8,-96.667,78.15,25,0,36.82,US,1650735534
331,Visnes,59.3556,5.2242,53.65,58,0,10.36,NO,1650735534
332,Kiruna,67.8557,20.2251,41.92,52,14,5.75,SE,1650735534
333,Iqaluit,63.7506,-68.5145,10.13,72,20,3.44,CA,1650735535
334,Rio Claro,-22.4114,-47.5614,76.6,51,64,10.04,BR,1650735535
335,Dikson,73.5069,80.5464,-5.4,100,98,7.07,RU,1650735334
336,Beni,0.5,29.4667,64.08,94,91,3.29,CD,1650735535
337,Kahului,20.8947,-156.47,75.85,76,40,10.0,US,1650735536
338,Japura,-0.3167,102.35,75.13,98,95,1.23,ID,1650735536
339,Maţāy,28.419,30.7792,79.0,14,50,7.61,EG,1650735384
340,Ovalle,-30.5983,-71.2003,81.19,24,0,5.12,CL,1650735536
341,Boa Vista,2.8197,-60.6733,91.38,49,40,10.36,BR,1650735070
342,Qandala,11.472,49.8728,85.96,63,67,7.58,SO,1650734998
343,Marawi,7.9986,124.2928,68.32,93,81,1.63,PH,1650735537
344,Malbork,54.0359,19.0266,50.85,90,12,8.93,PL,1650735537
345,Yeniseysk,58.4497,92.1703,21.72,94,98,3.85,RU,1650735537
346,Cefalù,38.0386,14.0229,67.35,67,0,1.99,IT,1650735538
347,Barcelos,41.5388,-8.6151,59.85,68,12,8.52,PT,1650735538
348,Mahon,39.8885,4.2658,59.56,72,20,23.02,ES,1650735412
349,Çubuk,40.2386,33.0322,68.77,30,0,2.3,TR,1650735538
350,Morwell,-38.2333,146.4,52.39,99,13,0.81,AU,1650735539
351,Bubaque,11.2833,-15.8333,77.34,77,58,19.24,GW,1650735293
352,Buraidah,26.326,43.975,77.45,62,96,24.9,SA,1650735539
353,Khovd,48.0056,91.6419,46.13,41,23,4.21,MN,1650735539
354,Kavieng,-2.5744,150.7967,82.11,75,67,12.08,PG,1650734992
355,Mbaïki,3.8678,17.9892,76.3,71,67,1.12,CF,1650735540
356,Voyvozh,62.892,54.9635,35.55,99,100,3.18,RU,1650735540
357,Nuuk,64.1835,-51.7216,36.21,93,75,6.91,GL,1650735540
358,Praia da Vitória,38.7333,-27.0667,61.05,63,40,15.1,PT,1650735540
359,Heinola,61.2056,26.0381,43.0,75,95,7.65,FI,1650735541
360,Tura,25.5198,90.2201,74.77,79,0,7.7,IN,1650735303
361,Gebze,40.8028,29.4307,63.55,55,0,4.61,TR,1650735541
362,Lhokseumawe,5.1801,97.1507,79.61,85,40,5.48,ID,1650735425
363,Husavik,66.0449,-17.3389,51.58,59,12,2.64,IS,1650735541
364,Saint-Louis,16.3333,-15.0,103.64,10,64,14.07,SN,1650735542
365,Petropavlovsk-Kamchatskiy,53.0452,158.6483,30.79,100,100,0.0,RU,1650735542
366,Menongue,-14.6585,17.691,62.44,65,54,1.43,AO,1650735542
367,Mabaruma,8.2,-59.7833,85.42,59,69,7.65,GY,1650735543
368,Sandpoint,48.2766,-116.5533,54.86,67,0,3.44,US,1650735543
369,Ekuvukeni,-28.4675,30.1551,61.39,89,43,4.79,ZA,1650735543
370,Herat Province,34.5,62.0,65.34,52,99,12.06,AF,1650735544
371,Ancud,-41.8697,-73.8203,50.23,78,90,21.05,CL,1650735324
372,Lal'sk,60.7415,47.5862,39.06,92,100,3.8,RU,1650735544
373,Carnarvon,-24.8667,113.6333,69.87,88,0,5.75,AU,1650735279
374,San Policarpo,12.1791,125.5072,80.1,82,100,3.62,PH,1650735545
375,Todos Santos,23.45,-110.2167,74.95,46,3,9.89,MX,1650735545
376,Gwadar,25.1216,62.3254,81.34,81,100,6.11,PK,1650735545
377,Kudahuvadhoo,2.6708,72.8944,84.74,73,98,11.39,MV,1650735546
378,San Vicente,-26.6167,-54.1333,72.25,53,72,4.36,AR,1650735546
379,Gorontalo,0.5412,123.0595,74.97,94,100,2.44,ID,1650735089
380,Jaguarari,-10.2639,-40.1958,86.16,40,67,10.6,BR,1650735546
381,Lazarev,52.225,141.5131,16.88,97,45,3.22,RU,1650735547
382,Yar-Sale,66.8333,70.8333,-5.78,100,61,5.26,RU,1650735088
383,Flinders,-34.5833,150.8552,57.18,90,15,4.0,AU,1650734777
384,Kibala,9.1104,18.3463,93.15,40,20,0.0,TD,1650735547
385,Anito,12.4497,125.2886,78.06,89,100,3.98,PH,1650735547
386,Itaituba,-4.2761,-55.9836,91.56,58,20,5.75,BR,1650735548
387,Ballina,-28.8667,153.5667,64.36,93,100,8.05,AU,1650735098
388,Havre-St-Pierre,50.2334,-63.5986,37.4,48,100,13.8,CA,1650735030
389,Mossamedes,-15.1961,12.1522,71.65,79,71,12.28,AO,1650735548
390,Porto Santo,33.072,-16.3415,64.78,52,40,8.05,PT,1650735549
391,Lyngseidet,69.5763,20.2189,39.2,83,59,4.0,NO,1650735549
392,Riyadh,24.6877,46.7219,89.74,16,14,13.56,SA,1650735486
393,Braço do Norte,-28.275,-49.1656,76.55,46,85,4.83,BR,1650735358
394,Coyhaique,-45.5752,-72.0662,47.01,71,100,5.75,CL,1650735378
395,Zhangjiakou,40.81,114.8794,60.33,24,95,5.75,CN,1650735550
396,Lorengau,-2.0226,147.2712,80.44,82,90,7.76,PG,1650735010
397,Krasne,49.9145,24.6134,44.51,89,91,5.3,UA,1650735550
398,Taunggyi,20.7833,97.0333,69.13,52,43,4.47,MM,1650735550
399,Khudumelapye,-23.8833,24.75,69.58,53,61,4.79,BW,1650735551
400,Boden,65.8252,21.6886,41.0,92,52,2.68,SE,1650735551
401,Catia La Mar,10.6038,-67.0303,89.49,89,20,5.75,VE,1650735551
402,College,64.8569,-147.8028,39.58,62,75,5.75,US,1650735307
403,Gao,16.6362,1.637,96.24,7,100,10.65,ML,1650735552
404,Mogok,22.9167,96.5,73.09,49,45,2.17,MM,1650735552
405,Encheng,22.1839,112.3026,74.91,91,7,3.89,CN,1650735552
406,São João da Barra,-21.6403,-41.0511,93.29,62,3,9.08,BR,1650735312
407,Amazar,53.858,120.875,24.44,57,12,2.64,RU,1650735553
408,Manzhouli,49.6,117.4333,33.62,61,68,8.99,CN,1650735553
409,Teahupoo,-17.8333,-149.2667,75.16,76,100,8.37,PF,1650735554
410,Nur-Sultan,51.1801,71.446,33.75,44,0,17.9,KZ,1650735296
411,Kumul,42.8,93.45,67.01,23,7,10.09,CN,1650735555
412,Suluktu,39.9337,69.57,58.48,56,96,5.91,KG,1650735555
413,Seydi,39.4816,62.9137,77.32,37,100,8.52,TM,1650735555
414,Cap Malheureux,-19.9842,57.6142,75.47,73,47,5.99,MU,1650735556
415,Yangi Marg`ilon,40.4272,71.7189,70.52,40,56,4.61,UZ,1650735422
416,Atambua,-9.1061,124.8925,72.16,85,7,3.8,ID,1650735315
417,Ambilobe,-13.2,49.05,75.06,89,70,4.03,MG,1650735556
418,Danilovka,50.3557,44.1168,52.16,51,66,4.76,RU,1650735556
419,Gusau,12.1628,6.6614,98.06,21,67,6.67,NG,1650735557
420,Helong,42.5397,128.9972,57.54,27,1,16.78,CN,1650735557
421,Salekhard,66.53,66.6019,-7.49,99,11,4.65,RU,1650735557
422,Pucallpa,-8.3791,-74.5539,89.64,58,40,5.75,PE,1650735558
423,Chingirlau,51.095,54.0814,48.09,78,100,13.49,KZ,1650735558
424,Quthing,-30.4,27.7003,54.05,93,84,2.1,LS,1650735044
425,Huarmey,-10.0681,-78.1522,73.0,75,17,10.76,PE,1650735558
426,Saint-Augustin,51.226,-58.6502,36.43,96,100,3.85,CA,1650735559
427,Mana,5.6592,-53.7767,79.93,82,97,4.12,GF,1650735479
428,Jasper,37.2001,-94.3502,77.11,53,75,15.01,US,1650735559
429,Mīnāb,27.1467,57.0801,80.92,50,29,2.3,IR,1650735559
430,Darhan,49.4867,105.9228,32.63,56,94,8.48,MN,1650735319
431,Bereda,43.2686,-7.5406,55.42,92,98,7.52,ES,1650735560
432,Sirte,31.2089,16.5887,63.86,69,0,8.39,LY,1650735560
433,Tabou,4.423,-7.3528,82.45,76,80,7.34,CI,1650735560
434,Vasil'yevskiy Mokh,57.0132,35.919,46.2,82,97,4.72,RU,1650735560
435,Rūjiena,57.8975,25.3316,53.06,71,94,11.72,LV,1650735561
436,Geraldton,-28.7667,114.6,70.21,37,36,20.71,AU,1650735561
437,Santa Helena de Goiás,-17.8136,-50.5969,88.66,37,2,7.47,BR,1650735381
438,Jutaí,-5.1833,-68.9,87.35,64,99,4.74,BR,1650735561
439,Codrington,-38.2667,141.9667,48.16,92,1,6.76,AU,1650735562
440,Santiago del Estero,-27.7951,-64.2615,76.37,51,17,14.56,AR,1650735562
441,Berlevåg,70.8578,29.0864,37.2,92,100,18.84,NO,1650735093
442,Pochutla,15.7432,-96.4661,90.82,43,4,9.73,MX,1650735562
443,Nhulunbuy,-12.2333,136.7667,77.61,94,100,3.44,AU,1650735563
444,Kermanshah,34.3142,47.065,67.1,31,0,4.61,IR,1650735563
445,Worland,44.0169,-107.9554,40.87,82,100,32.21,US,1650735563
446,Cruzília,-21.8386,-44.8083,75.76,60,3,11.83,BR,1650735564
447,Bay City,43.5945,-83.8889,73.72,50,0,9.22,US,1650735564
448,Verkhoyansk,67.5447,133.385,-0.11,100,86,2.24,RU,1650735564
449,Morón,-34.6534,-58.6198,73.96,42,4,9.62,AR,1650735565
450,Faanui,-16.4833,-151.75,80.44,74,99,6.64,PF,1650735565
451,Ribas do Rio Pardo,-20.4431,-53.7592,85.68,53,83,8.97,BR,1650735565
452,Were Īlu,10.6,39.4333,56.91,69,87,6.96,ET,1650735566
453,De Aar,-30.6497,24.0123,55.87,81,93,2.55,ZA,1650735566
454,Mason City,43.1536,-93.201,69.93,78,0,23.02,US,1650735566
455,Key West,24.5557,-81.7826,82.4,69,100,8.05,US,1650735543
456,Pauini,-7.7136,-66.9764,89.62,56,75,2.98,BR,1650735567
457,Kamen'-na-Obi,53.7884,81.3423,26.2,72,100,13.58,RU,1650735567
458,Vichuga,57.2128,41.9301,47.37,74,100,3.2,RU,1650735567
459,Balad,34.0164,44.1453,79.25,9,97,3.58,IQ,1650735568
460,Pevek,69.7008,170.3133,5.95,98,99,2.48,RU,1650735403
461,Kariba,-16.5167,28.8,73.11,72,45,0.22,ZW,1650735568
462,Madang,-5.2246,145.7966,75.61,88,93,3.04,PG,1650735568
463,Plácido de Castro,-10.3353,-67.1856,91.22,46,75,5.5,BR,1650735569
464,Lasem,-6.6922,111.4527,79.3,86,99,1.97,ID,1650735569
465,Trairi,-3.2778,-39.2689,74.17,97,99,8.08,BR,1650735313
466,Socotá,6.0403,-72.6351,58.23,83,92,1.92,CO,1650735569
467,Tongliao,43.6125,122.2653,56.1,36,100,4.05,CN,1650735570
468,Galveston,29.3669,-94.9669,82.36,73,20,19.57,US,1650735570
469,Hukuntsi,-24.0,21.75,74.91,31,43,3.29,BW,1650735570
470,Mankono,8.0586,-6.1897,89.94,46,99,4.29,CI,1650735570
471,Kostomuksha,64.571,30.5767,33.44,88,87,4.52,RU,1650735571
472,Alta Floresta,-9.8756,-56.0861,89.42,62,40,2.3,BR,1650735284
473,Conceição do Araguaia,-8.2578,-49.2647,86.32,63,72,3.87,BR,1650735571
474,Bingöl,38.8847,40.4939,58.86,50,0,0.09,TR,1650735571
475,The Pas,53.8251,-101.2541,44.62,45,0,10.36,CA,1650735521
476,Sabha,27.0377,14.4283,81.21,9,0,8.97,LY,1650735572
477,Griffith,41.5284,-87.4237,78.73,60,0,16.11,US,1650735572
478,Tazmalt,36.3868,4.3989,61.63,58,45,5.86,DZ,1650735572
479,Diapaga,12.0708,1.7889,101.41,9,92,7.27,BF,1650735573
480,Iberia,29.9502,-91.7507,82.06,57,75,19.57,US,1650735573
481,San Alberto,7.7611,-73.3922,86.27,64,26,4.52,CO,1650735573
482,Korla,41.7597,86.1469,69.48,20,75,2.62,CN,1650735070
483,Stephenville Crossing,48.5,-58.4318,41.13,75,100,14.97,CA,1650735521
484,Cockburn Town,21.4612,-71.1419,80.56,61,40,17.27,TC,1650735574
485,Miramar,25.9873,-80.2323,84.22,66,75,17.27,US,1650735292
486,Palana,59.1167,159.9667,18.03,87,99,6.33,RU,1650735575
487,Ternate,0.8,127.4,79.72,83,100,4.38,ID,1650735077
488,Road Town,18.4167,-64.6167,82.49,65,20,8.05,VG,1650735040
489,Rawson,-43.3002,-65.1023,63.52,27,33,41.38,AR,1650735575
490,Marlton,39.8912,-74.9218,65.82,40,100,1.99,US,1650735575
491,Karratha,-20.7377,116.8463,80.29,46,5,6.33,AU,1650735576
492,Guarapari,-20.6667,-40.4975,88.9,52,38,6.91,BR,1650735576
493,Samaná,19.2056,-69.3369,82.62,78,40,4.61,DO,1650735576
494,Prokuplje,43.2342,21.5881,61.88,80,27,2.1,RS,1650735576
495,Bilibino,68.0546,166.4372,5.86,96,100,2.95,RU,1650735577
496,Carauari,-4.8828,-66.8958,76.98,92,100,1.77,BR,1650735577
497,Spornoye,50.8448,37.2913,51.66,72,100,7.9,RU,1650735577
498,Arrah,25.5667,84.6667,85.89,15,0,7.47,IN,1650735578
499,Pacific Grove,36.6177,-121.9166,60.35,75,0,8.99,US,1650735032
500,Pangody,65.85,74.4859,-5.94,100,80,5.68,RU,1650735578
501,Beberibe,-4.1797,-38.1306,76.44,91,100,11.01,BR,1650735578
502,Ahipara,-35.1667,173.1667,62.76,69,34,14.65,NZ,1650735579
503,Santa Vitória,-18.8386,-50.1214,91.04,31,10,7.78,BR,1650735579
504,Lengshuitan,26.4111,111.5956,71.51,93,38,0.81,CN,1650735579
505,Warri,5.5167,5.75,80.33,86,100,8.34,NG,1650735579
506,Ulladulla,-35.35,150.4667,54.5,90,26,4.32,AU,1650735580
507,Shubarkuduk,49.1447,56.4872,52.2,81,100,12.5,KZ,1650735580
508,Kungurtug,50.5994,97.5228,24.35,68,60,1.9,RU,1650735580
509,Gizo Government Station,-8.103,156.8419,81.77,79,96,8.84,SB,1650735005
510,Bolgatanga,10.7856,-0.8514,102.11,20,49,0.69,GH,1650735581
511,Kununurra,-15.7667,128.7333,66.18,88,57,0.0,AU,1650735011
512,Balugo,12.5792,121.4393,77.85,84,23,7.9,PH,1650735581
513,Smithers,54.7804,-127.1743,43.12,65,100,5.75,CA,1650735307
514,Maragheh,37.3917,46.2398,61.07,20,0,6.91,IR,1650735582
515,Yukamenskoye,57.8865,52.2416,31.73,95,46,1.63,RU,1650735582
516,San Quintín,30.4833,-115.95,62.46,57,1,11.99,MX,1650735582
517,Pacifica,37.6138,-122.4869,65.01,72,20,5.99,US,1650735497
518,Salalah,17.0151,54.0924,84.29,79,20,8.05,OM,1650735306
519,Manacor,39.5696,3.2096,63.32,57,18,22.44,ES,1650735427
520,Zhigansk,66.7697,123.3711,3.52,99,53,7.2,RU,1650735105
521,Tautira,-17.7333,-149.15,78.22,79,100,8.84,PF,1650735583
522,Santa Gertrudis,19.7333,-99.3667,71.67,33,45,7.7,MX,1650735583
523,Chacabuco,-34.6417,-60.4739,77.0,26,5,14.72,AR,1650735583
524,Chumikan,54.7183,135.315,21.67,94,99,13.2,RU,1650735343
525,Alofi,-19.0595,-169.9187,71.49,94,28,1.14,NU,1650735584
526,Tahoua,14.8888,5.2692,98.01,11,27,8.43,NE,1650735584
527,Nola,40.922,14.5329,63.36,67,4,2.68,IT,1650735584
528,Gunjur,13.2019,-16.7339,96.87,30,0,6.91,GM,1650735585
529,Jaciara,-15.9653,-54.9683,83.62,63,47,4.79,BR,1650735585
530,Boussé,12.6606,-1.8922,101.84,9,86,9.4,BF,1650735585
531,Opunake,-39.4556,173.8583,59.11,76,75,22.86,NZ,1650735585
532,Spremberg,51.5697,14.3736,58.28,50,35,9.73,DE,1650735586
533,Monrovia,6.3005,-10.7969,87.57,77,77,10.63,LR,1650735586
534,Yarmouth,41.7057,-70.2286,61.14,52,0,8.05,US,1650735586
535,Kulhudhuffushi,6.6221,73.07,84.58,72,98,6.2,MV,1650735587
536,Watsa,3.0372,29.5355,66.78,91,41,3.42,CD,1650735587
537,Timrå,62.487,17.3257,42.48,56,75,9.22,SE,1650735587
538,Lakes Entrance,-37.8811,147.981,45.16,88,0,3.0,AU,1650735588
539,Ola,59.5833,151.2833,19.15,76,100,7.25,RU,1650735588
540,Aksarka,66.5606,67.7975,-6.72,100,56,2.01,RU,1650735588
541,Mazagão,-0.115,-51.2894,89.65,92,100,3.09,BR,1650735588
542,Gmina Śrem,52.0887,17.0151,57.31,66,56,1.48,PL,1650735589
543,Puga,21.5833,-104.8167,86.07,21,0,8.05,MX,1650735589
544,Taksimo,56.3444,114.8794,21.51,77,100,3.24,RU,1650735589
545,Kirakira,-10.4544,161.9205,79.36,80,85,3.33,SB,1650735590
546,Pingliang,35.5392,106.6861,59.7,75,100,6.8,CN,1650735590
547,Baoning,25.3378,110.026,73.26,94,40,2.24,CN,1650735590
548,Houma,29.5958,-90.7195,82.99,68,75,16.11,US,1650735421
549,Tomatlán,19.9333,-105.25,90.73,29,0,9.53,MX,1650735591
550,São Félix do Xingu,-6.6447,-51.995,89.29,54,100,3.4,BR,1650735591
551,Rio Grande,-32.035,-52.0986,71.71,43,0,12.08,BR,1650735591
552,Rosarito,32.3333,-117.0333,68.41,54,5,7.85,MX,1650735591
553,Sarakhs,36.5449,61.1577,66.34,68,40,0.0,IR,1650735592
554,Vilcún,-38.65,-72.2333,54.34,73,74,5.68,CL,1650735592
555,Orissaare,58.5592,23.0826,53.55,74,93,17.81,EE,1650735592
556,Saint-François,46.4154,3.9054,56.64,77,75,17.27,FR,1650735073
557,Sekondi,4.937,-1.7128,82.2,80,96,9.17,GH,1650735593
558,Maridi,4.9158,29.4742,76.14,61,58,2.84,SS,1650735593
559,Belmonte,-15.8631,-38.8828,83.64,67,77,7.16,BR,1650735593
560,Emet,39.343,29.2585,59.94,46,30,3.38,TR,1650735593
561,Sulangan,11.1373,123.7228,82.02,78,55,8.12,PH,1650735594
562,Noumea,-22.2763,166.4572,77.0,99,64,13.76,NC,1650735594
563,Leh,34.1667,77.5833,38.86,38,43,4.56,IN,1650735594
564,Xianyang,34.3378,108.7026,63.64,67,0,2.24,CN,1650735595
565,Jardim,-21.4803,-56.1381,87.13,50,41,6.6,BR,1650735512
566,Yantal',56.8471,105.2542,22.51,92,100,8.86,RU,1650735595
567,Qujing,25.4833,103.7833,59.99,80,34,6.49,CN,1650735595
568,Igrim,63.1906,64.4162,28.45,99,100,2.89,RU,1650735046
569,Salinas,36.6777,-121.6555,63.82,64,0,3.44,US,1650735596
570,Lebyazh'ye,55.2689,66.4947,33.03,47,6,6.82,RU,1650735596
571,Antipovka,49.8299,45.3122,54.86,67,97,2.17,RU,1650735596
