City,Lat,Lon,Max Temp,Humidity,Cloudiness,Wind Speed,Country,Date
Minna,9.6139,6.5569,79.65,66,100,5.39,NG,1650939128
Jalu,29.0331,21.5482,73.49,20,100,9.44,LY,1650939039
Rikitea,-23.1203,-134.9692,75.94,74,96,19.35,PF,1650939129
Acaraú,-2.8856,-40.12,77.74,86,49,10.42,BR,1650939129
Port Elizabeth,-33.918,25.5701,57.31,82,0,7,ZA,1650939130
Bluff,-46.6,168.3333,52.81,82,100,24.74,NZ,1650939130
Hobart,-42.8794,147.3294,62.22,71,40,4.61,AU,1650939131
Tres Arroyos,-38.3739,-60.2798,54.12,29,35,5.77,AR,1650939131
Albany,42.6001,-73.9662,56.55,43,95,1.99,US,1650939131
Makakilo City,21.3469,-158.0858,79.12,61,75,14.97,US,1650939132
Pringsewu,-5.3582,104.9744,82.18,76,100,1.14,ID,1650939132
Taltal,-25.4,-70.4833,62.55,86,32,4.14,CL,1650939133
Nhulunbuy,-12.2333,136.7667,90.21,58,75,9.22,AU,1650939036
Lebu,-37.6167,-73.65,55.67,80,100,27.94,CL,1650939133
Ushuaia,-54.8,-68.3,40.66,70,40,16.11,AR,1650939013
Alice Springs,-23.7,133.8833,72.95,53,60,6.91,AU,1650939133
Itarema,-2.9248,-39.9167,77.49,87,85,8.9,BR,1650939114
Punta Arenas,-53.15,-70.9167,33.91,75,20,6.91,CL,1650939006
Arrondissement de Bourges,47.25,2.4167,49.59,88,98,4.23,FR,1650939134
Dikson,73.5069,80.5464,11.62,93,100,4,RU,1650938880
Smithers,54.7804,-127.1743,46.72,61,75,0,CA,1650938917
Katobu,-4.9408,122.5276,86.58,62,92,2.98,ID,1650939135
Grindavik,63.8424,-22.4338,43.27,87,100,3.44,IS,1650939135
Anadyr,64.75,177.4833,30.7,80,40,26.84,RU,1650939135
Alyangula,-13.8483,136.4192,85.19,67,65,6.51,AU,1650939136
El Alto,-4.2714,-81.2147,66.85,84,80,14.92,PE,1650939137
Tytuvėnai,55.6,23.2,37.31,92,87,6.15,LT,1650939137
Ambon City,-3.6954,128.1814,95.14,59,40,4.61,ID,1650939137
Port Hardy,50.6996,-127.4199,46.26,73,48,6.76,CA,1650938937
Mulchén,-37.7167,-72.2333,52.84,81,100,11.9,CL,1650939138
Saldanha,-33.0117,17.9442,55.51,77,99,10.36,ZA,1650939138
Jamestown,42.097,-79.2353,58.01,78,100,9.22,US,1650939138
Yulara,-25.2406,130.9889,76.84,44,56,6.91,AU,1650939139
Kapaa,22.0752,-159.319,80.58,89,40,17.27,US,1650939139
Narsaq,60.9167,-46.05,37.62,90,98,1.52,GL,1650939124
Paamiut,61.994,-49.6678,28.96,89,100,2.35,GL,1650939139
Busselton,-33.65,115.3333,66.74,51,72,15.19,AU,1650938886
Port Alfred,-33.5906,26.891,57.38,81,5,11.63,ZA,1650939140
Oshawa,43.9001,-78.8496,53.69,89,100,4.61,CA,1650938844
Katsuura,35.1333,140.3,69.82,85,100,15.9,JP,1650939140
Hambantota,6.1241,81.1185,81,82,17,4.09,LK,1650939055
College,64.8569,-147.8028,52.12,36,75,4.61,US,1650938965
Palm Coast,29.585,-81.2078,75,83,0,13,US,1650939062
Chokurdakh,70.6333,147.9167,13.75,87,21,3.27,RU,1650938882
Kitale,1.0157,35.0062,58.42,97,100,4.23,KE,1650939141
Tiksi,71.6872,128.8694,6.89,89,63,1.79,RU,1650938979
Edd,13.9297,41.6925,87.22,60,29,9.13,ER,1650939141
Nanga Eboko,4.6833,12.3667,69.57,99,100,0.94,CM,1650939141
Ancud,-41.8697,-73.8203,49.23,81,100,23.6,CL,1650939142
Airai,-8.9266,125.4092,73.62,41,98,1.99,TL,1650939142
Rawson,-43.3002,-65.1023,57.38,36,90,31.43,AR,1650939051
Vanavara,60.34,102.2797,32.63,67,90,6.06,RU,1650939142
Cayenne,4.9333,-52.3333,78.1,1,75,0,GF,1650939136
Salinópolis,-0.6136,-47.3561,78.53,88,95,9.57,BR,1650939143
Saryg-Sep,51.5,95.6,37.17,28,100,2.75,RU,1650939143
Bam,29.106,58.357,77.81,24,62,7.58,IR,1650939143
Cabra,37.4725,-4.4421,54.48,73,100,3.18,ES,1650939144
Boende,-0.2167,20.8667,70.09,91,100,0.85,CD,1650939144
Bredasdorp,-34.5322,20.0403,52.29,83,4,3.33,ZA,1650939144
Puerto Ayora,-0.7393,-90.3518,71.35,92,91,6.06,EC,1650939145
Butaritari,3.0707,172.7902,80.49,83,26,12.55,KI,1650939145
Jasper,37.2001,-94.3502,53.65,64,0,0,US,1650939145
Yellowknife,62.456,-114.3525,38.16,90,100,10.65,CA,1650938913
Nichinan,31.6,131.3667,77.34,79,100,15.79,JP,1650939146
Anchorage,61.2181,-149.9003,56.28,58,0,12.66,US,1650938889
Cherskiy,68.75,161.3,30.29,72,100,4.47,RU,1650939146
East London,-33.0153,27.9116,59.07,74,1,10.54,ZA,1650939146
Vestmanna,62.1564,-7.1664,36.52,75,100,1.14,FO,1650939147
Souillac,-20.5167,57.5167,75.58,83,75,11.5,MU,1650938963
Xapuri,-10.6517,-68.5044,74.61,94,100,1.14,BR,1650939147
Margate,51.3813,1.3862,47.7,78,28,7,GB,1650939147
Vestmannaeyjar,63.4427,-20.2734,44.98,85,92,9.37,IS,1650939148
Urengoy,65.9667,78.3667,14.63,93,77,7.76,RU,1650939148
Provideniya,64.3833,-173.3,28.51,74,75,20.13,RU,1650939126
Sibolga,1.7427,98.7792,77.52,94,100,5.68,ID,1650939148
Barrow,71.2906,-156.7887,15.82,73,40,12.66,US,1650938952
Hilo,19.7297,-155.09,79.29,79,100,5.75,US,1650938851
Le Vauclin,14.5452,-60.8388,77.85,88,100,4.61,MQ,1650939149
Alekseyevka,50.6309,38.6903,52.57,73,10,4.23,RU,1650939149
Thompson,55.7435,-97.8558,17.31,90,100,2.8,CA,1650939150
Half Moon Bay,37.4636,-122.4286,67.41,75,75,27.63,US,1650939150
Lorengau,-2.0226,147.2712,83.59,74,14,8.34,PG,1650939037
Upernavik,72.7868,-56.1549,10.42,90,53,4.59,GL,1650939013
Mahanoro,-19.9,48.8,70.81,88,44,2.55,MG,1650939150
Grand Gaube,-20.0064,57.6608,75.6,71,57,20.31,MU,1650939033
Fortuna,40.5982,-124.1573,56.08,80,100,4,US,1650939151
Portland,45.5234,-122.6762,57.52,75,100,6.91,US,1650939104
Jiangyou,31.7667,104.7167,76.51,52,17,4.94,CN,1650939151
Hofn,64.2539,-15.2082,39.27,96,100,6.44,IS,1650938977
Centralia,46.7162,-122.9543,54.34,68,100,5.75,US,1650938583
Vao,-22.6667,167.4833,74.86,57,100,18.52,NC,1650938973
Hermanus,-34.4187,19.2345,55.31,76,1,5.84,ZA,1650938883
Sun Valley,39.5963,-119.776,65.08,28,40,16.11,US,1650939152
Cidreira,-30.1811,-50.2056,67.8,94,100,16.06,BR,1650939113
Yangi Marg`ilon,40.4272,71.7189,61.52,67,100,4.61,UZ,1650938990
Korem,12.5058,39.5228,54.54,76,62,2.62,ET,1650939152
Korla,41.7597,86.1469,63.52,14,100,8.48,CN,1650939153
Zaraza,9.3503,-65.3245,78.67,78,76,8.88,VE,1650939153
Amahai,-3.3333,128.9167,84.56,71,60,3.11,ID,1650939153
Bambous Virieux,-20.3428,57.7575,75.45,83,75,11.5,MU,1650938875
Lafia,8.4833,8.5167,78.4,70,100,3.22,NG,1650939154
Dekar,-21.5333,21.9333,60.08,61,0,8.41,BW,1650939154
Leningradskiy,69.3833,178.4167,21.69,89,89,13.87,RU,1650939154
Rome,34.257,-85.1647,72.01,84,0,3.44,US,1650939069
Hong Kong,22.2855,114.1577,84.96,84,1,7,HK,1650939004
Kruisfontein,-34.0033,24.7314,48.88,84,0,7.25,ZA,1650939056
Ribeira Grande,38.5167,-28.7,58.89,70,71,6.93,PT,1650938955
Torbay,47.6666,-52.7314,37.89,96,100,14,CA,1650938937
São Miguel do Araguaia,-13.275,-50.1628,75.15,64,6,2.06,BR,1650939155
Quatre Cocos,-20.2078,57.7625,75.31,74,44,16.17,MU,1650939057
Kailua,21.4022,-157.7394,80.58,72,20,12.66,US,1650939155
Ilulissat,69.2167,-51.1,19.42,93,100,0,GL,1650938885
Atuona,-9.8,-139.0333,78.8,78,24,16.51,PF,1650939156
Clyde River,70.4692,-68.5914,8.83,92,100,19.57,CA,1650939156
Sorong,-0.8833,131.25,82.42,79,100,5.75,ID,1650939157
Qaanaaq,77.484,-69.3632,6.21,62,21,7.49,GL,1650939075
High Level,58.5169,-117.136,47.17,86,74,10.45,CA,1650939024
Porto Santo,33.072,-16.3415,61.18,77,40,10.36,PT,1650939157
Vaini,-21.2,-175.2,71.76,88,100,12.66,TO,1650938977
Lapeer,43.0514,-83.3188,50.95,57,100,9.22,US,1650939157
Lander,42.833,-108.7307,49.98,47,0,3.44,US,1650939158
Praia,14.9215,-23.5087,73.94,56,0,24.16,CV,1650939158
Kysyl-Syr,63.8986,122.7617,29.1,80,90,4.41,RU,1650939158
Cape Town,-33.9258,18.4232,60.91,72,71,14,ZA,1650939159
Castro,-24.7911,-50.0119,59.05,88,6,2.98,BR,1650938987
Gambēla,8.25,34.5833,71.76,84,100,2.55,ET,1650939159
Lashio,22.9333,97.75,83.86,30,1,2.82,MM,1650939153
Mataura,-46.1927,168.8643,52.48,72,67,9.17,NZ,1650939159
Sapele,5.8941,5.6767,77.25,94,100,3.49,NG,1650939160
Kalmunai,7.4167,81.8167,81.81,77,66,2.71,LK,1650939160
Hamilton,39.1834,-84.5333,60.24,77,100,6.91,US,1650938934
Stolbishche,55.6468,49.216,48.65,75,40,11.18,RU,1650939160
Ouallam,14.3188,2.0866,81.97,14,38,10.67,NE,1650939161
New Norfolk,-42.7826,147.0587,61.88,57,5,1.9,AU,1650939161
Chirongui,-12.9319,45.1483,78.73,73,17,7.47,YT,1650939161
Araioses,-2.89,-41.9031,76.21,93,99,7.29,BR,1650939161
Vasil'sursk,56.1275,46.0072,49.73,90,100,7.31,RU,1650939162
Russell,32.3502,-85.1999,74.8,94,100,0,US,1650939162
Syedove,47.0768,38.156,56.48,83,96,6.53,UA,1650939162
Paragominas,-2.9667,-47.4833,72.23,98,79,3.02,BR,1650939163
Nikolskoye,59.7035,30.7861,41.72,98,100,4.47,RU,1650939135
Geraldton,-28.7667,114.6,72.01,56,100,9.22,AU,1650939163
São Félix do Xingu,-6.6447,-51.995,71.67,93,14,1.57,BR,1650939163
Suaita,6.1014,-73.4404,58.08,96,99,2.3,CO,1650939164
Søgne,58.0833,7.8167,43.7,62,14,4.34,NO,1650939164
Tilichiki,60.4667,166.1,30.31,92,100,12.48,RU,1650939164
Varginha,-21.5514,-45.4303,62.92,89,1,3.83,BR,1650939164
Saint-Philippe,-21.3585,55.7679,71.19,75,36,10.92,RE,1650938998
Narón,43.5167,-8.1528,57.02,77,77,4.32,ES,1650938888
Biak,-0.9131,122.8766,82.99,72,19,3.02,ID,1650939165
Mitsamiouli,-11.3847,43.2844,80.96,78,30,8.68,KM,1650939165
Farafangana,-22.8167,47.8333,70.3,89,52,5.3,MG,1650939165
Arraial do Cabo,-22.9661,-42.0278,74.84,82,0,14.36,BR,1650939139
Canguçu,-31.395,-52.6756,64.99,94,100,8.7,BR,1650939166
Beni Mazar,28.4962,30.8029,70.63,34,61,13.49,EG,1650939166
Gushi,34.6425,109.5843,81.45,30,74,2.98,CN,1650939167
Kavaratti,10.5669,72.642,84.92,73,21,6.69,IN,1650938934
Avera,33.194,-82.5271,69.31,78,0,4.41,US,1650939167
Saskylakh,71.9167,114.0833,11.88,92,72,1.86,RU,1650939137
Egvekinot,66.3167,-179.1667,23.94,76,53,7.83,RU,1650939167
Gijang,35.2442,129.2139,69.53,96,100,15.14,KR,1650939168
Zhigansk,66.7697,123.3711,19.92,84,83,3.83,RU,1650939090
Beaverlodge,55.2166,-119.4361,45.3,74,65,9.04,CA,1650939168
Cornwall,45.0181,-74.7281,69.04,48,20,11.5,CA,1650938997
Teknāf,20.8624,92.3058,85.12,72,45,4.27,BD,1650939115
Agadez,19.75,10.25,81.86,8,0,7.63,NE,1650939169
Saint Paul Harbor,57.79,-152.4072,45.91,66,75,6.91,US,1650939169
Port Montt,-41.4698,-72.9447,49.03,100,100,9.22,CL,1650939169
Mumford,5.2618,-0.759,80.13,84,84,2.86,GH,1650939169
Avarua,-21.2078,-159.775,82.45,78,75,5.75,CK,1650939170
Mogadishu,2.0371,45.3438,82.11,72,30,7.2,SO,1650938945
Khasan,42.4308,130.6434,51.24,79,46,7.56,RU,1650939170
San Miguel de Cozumel,20.5083,-86.9458,79,82,40,9.22,MX,1650939170
Santa Maria,-29.6842,-53.8069,68.67,98,98,8.37,BR,1650939171
Constitución,-35.3333,-72.4167,55.65,85,100,13.31,CL,1650939056
Dingle,10.9995,122.6711,87.35,65,100,10.27,PH,1650939043
Arrondissement de Moulins,46.5,3.3333,45.59,99,96,2.26,FR,1650939171
Santa Rosalía,27.3167,-112.2833,71.19,33,0,1.88,MX,1650939172
Mtwara,-10.2667,40.1833,75.52,93,80,6.71,TZ,1650939172
Karratha,-20.7377,116.8463,83.41,38,97,8.66,AU,1650939072
Iringa,-7.7667,35.7,57.94,94,83,4.72,TZ,1650939172
Nanpiao,41.0982,120.7479,63.84,18,1,20.96,CN,1650939173
Vila Franca do Campo,37.7167,-25.4333,59.2,85,83,5.77,PT,1650938992
Isangel,-19.55,169.2667,79.23,62,100,17.34,VU,1650939173
Gazimurskiy Zavod,51.5461,118.3266,41.14,42,95,7.47,RU,1650939173
Hailey,43.5196,-114.3153,53.46,31,0,5.01,US,1650939173
Şırnak,37.5228,42.4594,52.52,74,96,2.28,TR,1650939174
Werda,-25.2667,23.2833,54.64,29,0,7.63,BW,1650939174
Turan,16.0678,108.2208,87.78,66,20,3.44,VN,1650939054
Nortelândia,-14.4547,-56.8028,77.54,67,13,3.44,BR,1650939174
Gushikawa,26.3544,127.8686,81.99,80,100,18.41,JP,1650939175
Lata,40.1629,-8.3327,51.08,82,96,2.46,PT,1650939175
Verāval,20.9,70.3667,81.28,68,0,13.94,IN,1650939175
Dumas,35.8656,-101.9732,51.94,28,0,8.05,US,1650938971
Carnarvon,-24.8667,113.6333,75.27,78,40,9.22,AU,1650939176
Jiuquan,39.7432,98.5174,53.65,13,49,6.29,CN,1650939176
Yerofey Pavlovich,53.9667,121.9667,41.97,28,100,10.11,RU,1650939176
Byron Bay,-28.65,153.6167,70.95,73,100,6.13,AU,1650939177
Coyhaique,-45.5752,-72.0662,38.01,93,20,0,CL,1650938939
Lages,-27.8161,-50.3261,56.77,96,90,3.11,BR,1650939177
Laas,46.6166,10.7002,42.69,97,97,1.92,IT,1650939177
Severo-Kuril'sk,50.6789,156.125,33.57,97,94,27.89,RU,1650939178
Koslan,63.4564,48.8989,36.86,95,100,9.84,RU,1650939178
San Cristobal,7.7669,-72.225,69.98,90,100,1.05,VE,1650939178
Lismore,-28.8135,153.2773,71.69,81,100,0.89,AU,1650939178
Maceió,-9.6658,-35.7353,76.44,88,40,3.44,BR,1650939128
Teya,60.3778,92.6267,32.56,79,94,7.87,RU,1650939179
Tailai,46.3833,123.4,52.68,30,55,19.86,CN,1650939179
Mar del Plata,-38.0023,-57.5575,60.87,76,6,10,AR,1650939063
Mahon,39.8885,4.2658,52.36,100,0,2.3,ES,1650939073
Praia da Vitória,38.7333,-27.0667,56.75,82,65,6.26,PT,1650939180
Muhafazat Lahij,13.1667,44.5833,74.98,85,46,4.79,YE,1650939180
Tezu,27.9167,96.1667,78.4,48,48,1.28,IN,1650939180
Iturama,-19.7281,-50.1956,74.8,54,14,5.64,BR,1650939181
Sanming,26.2486,117.6186,84.92,65,13,7.83,CN,1650939181
Safi,32.2994,-9.2372,59.11,78,100,7.16,MA,1650939056
Tuatapere,-46.1333,167.6833,56.01,66,47,9.08,NZ,1650939182
Nanortalik,60.1432,-45.2371,32.5,97,94,5.28,GL,1650939182
San Jose,37.3394,-121.895,68.92,51,75,18.41,US,1650938976
Sittwe,20.15,92.9,84.67,71,20,6.62,MM,1650939182
Cabo San Lucas,22.8909,-109.9124,79.11,44,0,5.75,MX,1650939183
Berlevåg,70.8578,29.0864,21,76,99,30.36,NO,1650939183
Kilindoni,-7.9139,39.6668,79.93,83,53,10.04,TZ,1650939184
Norman Wells,65.282,-126.8329,36.77,93,100,5.99,CA,1650939042
Tiznit Province,29.5833,-9.5,53.51,87,93,6.06,MA,1650939184
Novosheshminsk,55.0651,51.2338,49.26,87,100,7.99,RU,1650939185
Antalaha,-14.9003,50.2788,73.22,83,100,4.41,MG,1650939185
Fairbanks,64.8378,-147.7164,52.14,36,0,4.61,US,1650938977
Pangkalanbuun,-2.6833,111.6167,78.69,88,98,3.29,ID,1650939178
Bethel,41.3712,-73.414,53.69,46,100,5.75,US,1650939186
Harindānga,22.0383,88.3214,87.37,69,3,12.15,IN,1650939186
Vostok,46.4856,135.8833,57.25,54,94,4.18,RU,1650939186
Bonavista,48.6499,-53.1147,35.62,93,100,13.06,CA,1650938984
Hithadhoo,-0.6,73.0833,84.4,72,100,6.2,MV,1650939187
Esperance,-33.8667,121.9,70.75,59,56,16.42,AU,1650939187
Jati,24.3539,68.2671,81.09,72,0,12.53,PK,1650939188
Porto Nacional,-10.7081,-48.4172,75.2,76,11,1.54,BR,1650939188
Roald,62.5833,6.1333,44.76,70,100,11.5,NO,1650939188
Broome,42.2506,-75.833,58.37,70,0,12.66,US,1650939050
Glace Bay,46.1969,-59.957,42.89,94,9,1.01,CA,1650938898
Luganville,-15.5333,167.1667,81.84,72,100,8.52,VU,1650939189
Luanda,-8.8368,13.2343,75.2,88,20,8.05,AO,1650939190
Pevek,69.7008,170.3133,29.82,70,100,4.14,RU,1650939132
Vung Tau,10.346,107.0843,83.97,73,62,4.79,VN,1650939190
Chachapoyas,-6.2317,-77.869,51.21,95,83,1.99,PE,1650939190
Gunjur,13.2019,-16.7339,78.87,53,0,13.8,GM,1650939191
Pisco,-13.7,-76.2167,68.05,77,0,8.05,PE,1650939191
Hasaki,35.7333,140.8333,73.29,86,100,15.75,JP,1650939191
Tuktoyaktuk,69.4541,-133.0374,31.69,94,94,6.53,CA,1650939192
Kahului,20.8947,-156.47,80.62,69,40,25.32,US,1650939192
Santa Ana,33.7456,-117.8678,83.61,20,75,6.91,US,1650939168
Haimen,23.1935,116.6142,82.18,71,1,9.71,CN,1650939193
Chillán,-36.6066,-72.1034,52.12,93,100,12.66,CL,1650939193
Puerto del Rosario,28.5004,-13.8627,67.75,77,40,9.22,ES,1650939193
Agía Paraskeví,40.4833,23.05,63.72,73,14,6.11,GR,1650939194
Macusani,-14.0833,-70.4333,35.13,88,98,1.03,PE,1650939194
Kaitangata,-46.2817,169.8464,56.05,66,94,15.21,NZ,1650939194
Saint-François,46.4154,3.9054,49.44,93,100,0,FR,1650939195
Palmerston,-12.486,130.9833,91.89,61,20,5.75,AU,1650939195
Salina,38.8403,-97.6114,52.02,31,0,5.75,US,1650939034
Sangar,63.9242,127.4739,26.31,77,97,7.67,RU,1650939195
Longyearbyen,78.2186,15.6401,-13.67,94,50,2.75,SJ,1650939193
Northam,51.0333,-4.2167,45.66,79,25,7.14,GB,1650939196
Chui,-33.6971,-53.4616,64.98,99,68,1.57,UY,1650939196
Blackfoot,43.1905,-112.345,56.21,46,100,6.58,US,1650939064
Humberto de Campos,-2.5983,-43.4611,75.11,95,98,4.25,BR,1650939197
Laredo,27.5064,-99.5075,71.89,83,100,24.16,US,1650939189
Damāvand,35.7178,52.065,57.67,56,100,2.66,IR,1650939197
Bud,39.447,-86.1758,54.46,75,99,10.63,US,1650939197
Aripuanã,-9.1667,-60.6333,74.86,81,18,1.99,BR,1650938935
Paris,48.8534,2.3488,47.14,86,0,8.05,FR,1650938885
Kuchinarai,16.541,104.05,93.38,47,8,10.8,TH,1650939198
Raudeberg,61.9875,5.1352,43.47,78,8,25.64,NO,1650939198
Cuautepec,16.7,-99,78.12,67,15,2.91,MX,1650939198
Poum,-20.2333,164.0167,77.47,62,99,11.7,NC,1650939199
Mount Isa,-20.7333,139.5,74.97,88,100,8.05,AU,1650939199
Semporna,4.4818,118.6112,83.53,75,96,1.39,MY,1650939199
Dudinka,69.4058,86.1778,6.62,92,100,8.7,RU,1650939200
Vardø,70.3705,31.1107,25.34,68,60,31.74,NO,1650938974
Guerrero Negro,27.9769,-114.0611,67.21,55,0,14.32,MX,1650939200
São João da Barra,-21.6403,-41.0511,73.13,83,2,3.91,BR,1650939200
Norwich,52.6278,1.2983,42.93,91,5,2.3,GB,1650939201
Talnakh,69.4865,88.3972,6.21,94,100,7.61,RU,1650939110
San Patricio,28.017,-97.5169,78.66,89,100,10.89,US,1650938987
Abu Kamal,34.4506,40.9171,71.33,39,75,5.3,SY,1650939201
Turukhansk,65.8167,87.9833,18.48,85,18,4.94,RU,1650939201
Road Town,18.4167,-64.6167,75.29,70,7,13.49,VG,1650939071
Asău,46.4333,26.4,49.95,89,4,5.99,RO,1650939202
Houma,29.5958,-90.7195,71.6,88,0,3.44,US,1650939202
Batagay,67.6333,134.6333,22.17,78,100,2.28,RU,1650939203
Aklavik,68.2191,-135.0107,32.95,100,100,6.49,CA,1650939203
Camalú,30.85,-116.0667,68.59,45,3,7.14,MX,1650939203
Boda,4.3189,17.4695,71.92,85,100,1.99,CF,1650939203
Ketchikan,55.3422,-131.6461,48.67,66,40,14.97,US,1650939204
Guadalupe y Calvo,26.1,-106.9667,52.68,30,2,2.71,MX,1650939204
Beringovskiy,63.05,179.3167,31.05,98,100,17.29,RU,1650939204
Richards Bay,-28.783,32.0377,64.35,70,89,12.88,ZA,1650939205
Miraflores,19.2167,-98.8083,63.25,75,80,5.82,MX,1650939205
Kavieng,-2.5744,150.7967,85.1,67,7,10.18,PG,1650939205
Touros,-5.1989,-35.4608,76.69,89,41,8.48,BR,1650939163
Herat Province,34.5,62,66.94,24,9,4.72,AF,1650939206
Bandar-e Lengeh,26.5579,54.8807,78.91,83,60,6.91,IR,1650939206
Baruun-Urt,46.6806,113.2792,37.35,32,100,21.18,MN,1650939206
Marsh Harbour,26.5412,-77.0636,74.23,69,0,16.35,BS,1650939206
Asopós,36.7333,22.8667,63.03,38,100,5.41,GR,1650939207
La Ronge,55.1001,-105.2842,29.43,75,1,10.2,CA,1650939207
Tasiilaq,65.6145,-37.6368,28.56,97,100,6.04,GL,1650939207
Victoria Point,-27.5833,153.3,73.36,74,100,3,AU,1650939208
Kapit,2.0167,112.9333,84.81,66,100,0.98,MY,1650939208
Nouadhibou,20.931,-17.0347,65.07,91,31,14.43,MR,1650939208
Kaeo,-35.1,173.7833,70.32,67,10,5.28,NZ,1650939209
Ankang,32.68,109.0172,73.63,70,100,1.99,CN,1650939209
Ishigaki,24.3448,124.1572,80.62,84,1,20.6,JP,1650939209
Los Llanos de Aridane,28.6585,-17.9182,60.55,84,0,8.05,ES,1650939210
Samarai,-10.6167,150.6667,85.86,69,83,15.1,PG,1650939210
Jizan,17.3333,42.6667,83.95,59,55,4.47,SA,1650939210
Kutum,14.2,24.6667,75.76,12,100,0.67,SD,1650939211
Maxixe,-23.8597,35.3472,73.42,87,96,9.64,MZ,1650939211
Bauchi,10.5,10,82.74,49,100,3.47,NG,1650939211
Gerāsh,27.6652,54.1371,66.34,29,93,1.25,IR,1650939212
Skellefteå,64.7507,20.9528,34.16,56,97,9.22,SE,1650939212
Rafai,4.95,23.9167,67.95,99,100,2.48,CF,1650939212
Ceres,37.5949,-120.9577,80.92,25,0,17.27,US,1650939154
Ampanihy,-24.7,44.75,74.55,69,100,1.95,MG,1650939213
Coripata,-16.3,-67.6,61.92,95,74,0.89,BO,1650939213
San Quintín,30.4833,-115.95,66.6,53,0,8.12,MX,1650939213
Saint-Pierre,-21.3393,55.4781,71.28,74,0,8.05,RE,1650939214
Muravlenko,63.7898,74.523,22.96,90,58,3.22,RU,1650939214
Port-Gentil,-0.7193,8.7815,80.69,83,98,7.94,GA,1650939038
Kismayo,-0.3582,42.5454,81.81,78,14,9.46,SO,1650939070
Baiyin,36.5583,104.2081,66.94,20,29,5.79,CN,1650939214
Xining,36.6167,101.7667,56.16,39,1,2.35,CN,1650939215
Awjilah,29.1081,21.2869,73.99,21,100,9.66,LY,1650939215
Pedernales,18.0384,-71.744,77.86,73,10,4.5,DO,1650939197
Imbituba,-28.24,-48.6703,73.85,94,100,13.65,BR,1650939215
Ban Dung,17.699,103.2596,90.1,78,5,3.89,TH,1650939216
Bunia,1.5667,30.25,61.21,95,91,1.88,CD,1650939216
Amga,60.8953,131.9608,33.17,55,98,5.57,RU,1650939216
Vila Velha,-20.3297,-40.2925,75.94,84,0,1.14,BR,1650939217
Carutapera,-1.195,-46.02,75.88,95,94,6.87,BR,1650939217
Steenwijk,52.7875,6.1208,46,85,71,8.12,NL,1650939217
Deputatsky,69.3,139.9,13.62,84,100,2.46,RU,1650939145
Moranbah,-22.0016,148.0466,67.84,96,100,18.48,AU,1650939218
Noumea,-22.2763,166.4572,80.58,99,100,13.87,NC,1650939185
Caucayá,-0.1934,-74.7819,72.55,97,100,2.33,CO,1650939218
Fort Nelson,58.8053,-122.7002,35.22,100,100,3.38,CA,1650939218
Rome,43.2128,-75.4557,62.74,55,0,6.91,US,1650939028
Berdigestyakh,62.0989,126.6992,29.7,76,81,4.52,RU,1650939219
Shimoda,34.6667,138.95,70.16,95,100,8.55,JP,1650939219
Melito di Porto Salvo,37.9222,15.7714,61.56,82,77,10.36,IT,1650939219
Saint George,37.1041,-113.5841,76.24,10,0,4.61,US,1650939220
Kirakira,-10.4544,161.9205,84.87,72,86,5.7,SB,1650939220
Lake Charles,30.2131,-93.2044,67.98,90,100,9.22,US,1650939003
Thunder Bay,48.4001,-89.3168,28.31,64,100,11.5,CA,1650939007
Bathsheba,13.2167,-59.5167,77.61,94,75,13.8,BB,1650939221
Polunochnoye,60.8697,60.4153,35.06,91,86,2.84,RU,1650939221
Bridgwater,51.1284,-3.0036,48.15,86,9,3.87,GB,1650939221
Tigil',57.8,158.6667,32.05,98,100,7.65,RU,1650939221
Natal,-5.795,-35.2094,75.85,100,20,3.44,BR,1650939222
Dinklage,52.65,8.1167,45.12,83,100,4.63,DE,1650939222
Caravelas,-17.7125,-39.2481,75.54,83,0,4.03,BR,1650939222
Catacaos,-5.2667,-80.6833,73.18,67,28,17.76,PE,1650939223
Meulaboh,4.1363,96.1285,74.73,96,100,3.67,ID,1650939223
Auki,-8.7676,160.7034,84.15,73,53,2.95,SB,1650939063
Methóni,36.8197,21.7049,62.22,73,100,12.57,GR,1650939223
Charlottesville,38.0293,-78.4767,70.45,75,0,4.61,US,1650939224
Mahabalipuram,12.6264,80.1722,86.05,72,6,10.31,IN,1650939224
Baculin,7.4525,126.5842,85.44,71,96,6.46,PH,1650939224
Nishihara,26.1842,127.7558,82.06,86,75,18.41,JP,1650939225
Oxbow,49.2333,-102.1676,13.78,95,51,4.74,CA,1650939225
Zhangye,38.9342,100.4517,62.78,20,15,9.89,CN,1650939011
Dvinskoy,62.1535,45.1175,42.51,97,100,7.61,RU,1650939225
Babrāla,28.2667,78.4,89.06,18,59,5.75,IN,1650939226
Dzhebariki-Khaya,62.2167,135.8,31.8,76,100,3.83,RU,1650939226
Bac Lieu,9.285,105.7244,86.05,64,97,5.37,VN,1650939226
Umluj,25.0213,37.2685,76.35,43,0,7.85,SA,1650938947
Lumsden,50.6501,-104.8678,39.96,56,60,13.6,CA,1650938934
Bilma,18.6853,12.9164,86.43,12,0,1.86,NE,1650939227
Mizdah,31.4451,12.9801,57.92,43,48,11.52,LY,1650938961
San Jerónimo,-11.9472,-75.2829,50.56,81,100,3.51,PE,1650939227
Ambilobe,-13.2,49.05,70.21,85,11,4.27,MG,1650939191
Kemijärvi,66.7131,27.4306,28.92,68,97,12.66,FI,1650939227
Bastrop,32.7562,-91.8724,64.08,96,100,1.01,US,1650939228
Poconé,-16.2567,-56.6228,79.54,64,22,3.62,BR,1650939228
Okhotsk,59.3833,143.3,32.7,69,1,15.37,RU,1650939228
Krasnosel'kup,65.7,82.4667,13.37,88,92,3.71,RU,1650938962
Ciechanów,52.8814,20.62,44.46,94,100,6.24,PL,1650939229
Codrington,-38.2667,141.9667,71.73,42,100,11.61,AU,1650939229
Maryborough,-25.5333,152.7,70.11,88,100,6.02,AU,1650939229
Pangnirtung,66.1451,-65.7125,0.21,100,100,5.39,CA,1650939230
Haverfordwest,51.8017,-4.9691,46.54,77,100,3,GB,1650939230
Pacific Grove,36.6177,-121.9166,67.01,81,0,11.5,US,1650939230
Pampa,35.5362,-100.9599,56.35,28,0,8.05,US,1650939231
Tavares,28.8042,-81.7256,75.99,74,0,10.36,US,1650938958
Sovetskaya,44.7769,41.1722,56.05,81,29,7.92,RU,1650939231
George Town,5.4112,100.3354,85.95,79,20,0,MY,1650939231
Arrondissement de Sedan,49.6667,5,38.25,94,19,4.23,FR,1650939232
Pochutla,15.7432,-96.4661,81.82,68,30,5.01,MX,1650939232
Verkhnevilyuysk,63.4453,120.3167,30.42,82,97,1.99,RU,1650939232
Kandi,11.1342,2.9386,83.5,46,97,5.46,BJ,1650939232
Dhekiajuli,26.7,92.5,78.91,63,11,8.41,IN,1650939233
Monrovia,6.3005,-10.7969,80.13,85,77,6.71,LR,1650938937
Savannah Bight,16.45,-85.85,81.03,78,0,19.44,HN,1650939233
St. George's,12.0564,-61.7485,78.48,83,40,9.22,GD,1650939233
Kachīry,53.0675,76.1036,45.43,46,100,10.42,KZ,1650939234
Monte Patria,-30.6919,-70.9467,62.44,69,0,2.57,CL,1650939234
Vredendal,-31.6683,18.5012,57.67,45,100,3.8,ZA,1650939234
Brownsville,25.9018,-97.4975,79.09,88,100,12.66,US,1650939185
Launceston,-41.45,147.1667,64.8,67,100,2.3,AU,1650939162
Sobolevo,54.4299,31.8996,43.68,94,55,4.05,RU,1650939125
Gamba,-2.65,10,76.55,94,100,4.68,GA,1650939235
Dabakala,8.3667,-4.4333,77.67,74,41,4.88,CI,1650939235
Camacha,33.0833,-16.3333,58.42,77,40,10.36,PT,1650939235
Nur-Sultan,51.1801,71.446,35.55,60,0,2.24,KZ,1650939236
Yuxia,34.0615,108.6291,75.81,36,68,3.6,CN,1650939236
Merauke,-8.4667,140.3333,86.25,64,12,1.72,ID,1650939236
Sola,-13.8833,167.55,80.78,76,82,17.07,VU,1650939037
Barcelona,41.3888,2.159,57.79,74,20,3.44,ES,1650939237
Maniitsoq,65.4167,-52.9,28.63,84,100,12.1,GL,1650939237
Skibotn,69.3913,20.2679,24.28,94,99,8.37,NO,1650939237
Abu Samrah,35.3029,37.1841,64.74,45,8,3.22,SY,1650939184
Mahébourg,-20.4081,57.7,75.49,83,75,11.5,MU,1650938990
Inhambane,-23.865,35.3833,74.34,85,97,10.69,MZ,1650939238
Manokwari,-0.8667,134.0833,84.58,70,30,9.71,ID,1650939238
Paducah,37.0834,-88.6001,59.22,64,0,9.22,US,1650939127
Kaberamaido,1.7389,33.1594,65.97,90,91,2.33,UG,1650939238
Flinders,-34.5833,150.8552,70.38,79,100,7,AU,1650939239
Halifax,44.6453,-63.5724,45.68,87,97,4.9,CA,1650939127
La Asuncion,11.0333,-63.8628,76.89,91,23,8.93,VE,1650939239
Újszilvás,47.2748,19.9248,49.91,82,5,7.76,HU,1650939239
Bridlington,54.0831,-0.1919,41,84,16,9.04,GB,1650939240
Bontang,0.1333,117.5,76.21,90,100,4.32,ID,1650939240
Nizhniy Kuranakh,58.8353,125.4869,31.66,80,100,9.08,RU,1650939138
Zhezkazgan,47.8043,67.7144,40.98,87,0,6.71,KZ,1650939240
Dunedin,-45.8742,170.5036,58.8,50,60,21.99,NZ,1650939241
Nelson Bay,-32.7167,152.15,71.01,83,100,5.48,AU,1650939181
Huarmey,-10.0681,-78.1522,68.22,83,100,8.97,PE,1650939241
Samarkand,39.6542,66.9597,62.02,72,100,4.61,UZ,1650939242
Bosaso,11.2842,49.1816,82.35,64,52,10.09,SO,1650939242
Padang,-0.9492,100.3543,78.85,80,100,3.02,ID,1650939242
Ihosy,-22.4,46.1167,64.92,91,94,5.14,MG,1650939243
City of San Pedro,14.35,121.0167,90.63,66,20,8.05,PH,1650939243
Mareeba,-17,145.4333,85.44,75,39,2.37,AU,1650939243
Carnot,4.9409,15.8665,69.93,95,100,0.65,CF,1650939244
San Jose de Guanipa,8.8872,-64.1651,79.86,71,98,9.69,VE,1650939244
Khatanga,71.9667,102.5,10.47,90,100,6.85,RU,1650939206
Pozo Colorado,-23.4923,-58.7972,90.3,38,8,10.69,PY,1650939245
Mandalgovi,45.7625,106.2708,28.11,23,12,13.18,MN,1650939245
Sarkand,45.41,79.9186,43.45,68,63,4.92,KZ,1650939245
Mozăceni,44.5667,25.1667,51.31,80,100,5.12,RO,1650939246
Ponta do Sol,32.6667,-17.1,60.71,76,23,9.62,PT,1650939075
Port Shepstone,-30.7414,30.455,60.08,65,0,12.33,ZA,1650939200
Porto Belo,-27.1578,-48.5531,75.25,92,100,10.71,BR,1650939246
Aljezur,37.3191,-8.8033,54.39,89,45,1.86,PT,1650939247
Madimba,-10.4,40.3333,76.28,91,67,5.75,TZ,1650939247
Bayan,46.0833,127.4,55.69,32,1,20.09,CN,1650939247
Tignère,7.3667,12.65,68.2,84,100,2.59,CM,1650939248
Kungurtug,50.5994,97.5228,27.09,48,100,1.52,RU,1650939248
Lonoy,11.5122,122.5533,82.02,88,97,6.53,PH,1650939249
Paharpur,32.1038,70.9724,86.99,21,0,1.95,PK,1650939249
Sokoni,-6.4333,39.55,79.66,85,100,10.11,TZ,1650939249
Dillon,34.4166,-79.3712,71.94,74,0,8.03,US,1650939153
Maragogi,-9.0122,-35.2225,76.98,85,100,8.59,BR,1650939250
Lompoc,34.6391,-120.4579,68.77,79,0,15.99,US,1650939091
Ubinskoye,55.3068,79.6802,42.12,55,100,8.99,RU,1650939250
Ponnāni,10.767,75.9252,83.52,81,19,4.25,IN,1650939250
Kloulklubed,7.0419,134.2556,82.9,74,100,16.17,PW,1650939251
Goderich,43.7501,-81.7165,47.91,88,100,12.55,CA,1650939251
Bubaque,11.2833,-15.8333,77.52,72,4,10,GW,1650939251
Along,28.1667,94.7667,73.38,64,39,0.6,IN,1650939252
Kushima,31.4583,131.2333,77.81,79,99,11.7,JP,1650939252
Pāsighāt,28.0667,95.3333,78.35,57,41,1.25,IN,1650939252
Kot Addu,30.4692,70.9671,85.77,19,0,6.15,PK,1650939253
Onalaska,43.8844,-91.2351,39.06,68,100,12.66,US,1650939253
Port Blair,11.6667,92.75,85.44,67,100,3.53,IN,1650939253
Ugoofaaru,5.6667,73,84.36,69,48,3.62,MV,1650939135
Harper,4.375,-7.7169,78.94,84,84,4.16,LR,1650939254
Saint-Augustin,51.226,-58.6502,34.88,97,100,9.37,CA,1650939254
Forsytheganj,52.6333,29.7333,47.07,96,100,6.78,BY,1650939255
Abhā,18.2164,42.5053,53.85,100,40,8.05,SA,1650939255
Kasongo-Lunda,-6.4667,16.8167,69.91,97,100,0.74,CD,1650939255
Naze,28.3667,129.4833,76.12,82,22,17.6,JP,1650939256
Dickson,36.077,-87.3878,60.55,93,100,9.22,US,1650939256
Karasjok,69.4719,25.5112,18.81,84,57,9.19,NO,1650939257
Lusambo,-4.9667,23.45,69.57,100,100,1.01,CD,1650939257
Lichuan,30.3,108.85,61.59,88,100,1.83,CN,1650939257
Perth,-31.9333,115.8333,69.19,60,75,12.66,AU,1650939058
Newport,51.5877,-2.9984,48.09,81,25,10.27,GB,1650939258
Kwang Binh,17.4833,106.6,88.99,62,7,4.92,VN,1650939258
Kutulik,53.3508,102.7839,35.96,49,21,9.64,RU,1650939258
Taiyuan,37.8694,112.5603,64.26,15,0,22.37,CN,1650939259
Poronaysk,49.2167,143.1167,32.09,75,100,9.71,RU,1650939259
Severo-Yeniseyskiy,60.3725,93.0408,29.41,81,94,9.13,RU,1650939259
Cianorte,-23.6633,-52.605,68.23,85,99,6.62,BR,1650939260
Raja,8.4596,25.678,73.72,75,100,3.87,SS,1650939260
Buala,-8.145,159.5921,85.23,71,60,3.56,SB,1650939260
Kuah,6.3265,99.8432,82.24,79,100,3.24,MY,1650939260
Lodja,-3.4833,23.4333,69.37,100,100,0.98,CD,1650939261
Coahuayana Viejo,18.7333,-103.6833,70.93,85,31,2.08,MX,1650939261
Olafsvik,64.8945,-23.7142,42.01,83,88,4.25,IS,1650939261
Abéché,13.8292,20.8324,79.9,47,95,3.87,TD,1650939262
Honningsvåg,70.9821,25.9704,24.55,54,75,23.02,NO,1650939262
Cabedelo,-6.9811,-34.8339,74.07,80,10,9.62,BR,1650939262
Presidencia Roque Sáenz Peña,-26.7852,-60.4388,78.21,75,93,4.38,AR,1650939208
Mokshan,53.4365,44.6132,53.11,78,100,11.32,RU,1650939263
Matara,5.9485,80.5353,80.8,81,12,3.04,LK,1650939263
Marovoay,-16.1,46.6333,70.79,75,10,5.1,MG,1650939263
Lagoa,39.05,-27.9833,58.03,71,95,11.56,PT,1650939210
El Molino,10.6523,-72.924,75.45,89,100,2.01,CO,1650939264
Khāsh,28.2211,61.2158,69.69,28,10,3.11,IR,1650939264
São Filipe,14.8961,-24.4956,74.7,69,83,11.79,CV,1650939264
Bar Harbor,44.3876,-68.2039,41.25,78,40,5.75,US,1650939265
Bogale,16.2833,95.4,88.92,56,49,7.94,MM,1650939265
Baykit,61.67,96.37,28.78,92,100,4.41,RU,1650939265
Passagem Franca,-6.1797,-43.7836,72.81,77,100,1.72,BR,1650939266
Taoudenni,22.6783,-3.9836,74.3,25,0,9.48,ML,1650939227
Muzhi,65.3667,64.6667,26.01,96,100,4.25,RU,1650939266
Kiunga,-6.1219,141.2906,87.04,60,85,2.33,PG,1650939266
Te Anau,-45.4167,167.7167,55.89,54,5,1.86,NZ,1650939267
San Angelo,31.4638,-100.437,63.54,44,0,11.5,US,1650939267
Lagos,6.5833,3.75,78.44,91,28,5.84,NG,1650939267
Green River,41.5286,-109.4662,47.98,50,100,1.01,US,1650939056
Ayan,56.45,138.1667,35.73,75,1,5.39,RU,1650939268
Yinchuan,38.4681,106.2731,54.1,14,6,15.52,CN,1650939268
Evensk,61.95,159.2333,32.16,75,100,21.09,RU,1650939268
Poso,-1.3959,120.7524,85.73,65,39,3.06,ID,1650939269
Bataiporã,-22.2953,-53.2711,72.86,77,43,6.69,BR,1650939269
Strai,58.2,7.9,34.39,93,14,6.91,NO,1650939269
Oktyabr'skiy,54.4815,53.471,52,85,87,7.45,RU,1650939171
Manggar,-2.8833,108.2667,84.52,69,93,3.22,ID,1650939270
Waitara,-38.925,174.25,65.5,73,86,8.41,NZ,1650939270
Salalah,17.0151,54.0924,80.69,74,40,4.61,OM,1650939203
Cumberland,35.0502,-78.8664,75.6,64,0,10.36,US,1650939045
Talara,-4.5772,-81.2719,67.24,88,37,16.98,PE,1650939270
Kashgar,39.4547,75.9797,69.01,13,20,6.71,CN,1650939271
North Myrtle Beach,33.816,-78.68,70.11,87,0,11.5,US,1650939271
Palkino,57.5409,28.0126,40.75,96,87,4.88,RU,1650939271
Ubari,26.5921,12.7805,73.2,16,87,14.16,LY,1650939272
Klaksvík,62.2266,-6.589,38.32,69,100,13.4,FO,1650939015
São Gabriel da Cachoeira,-0.1303,-67.0892,73.04,98,100,0.74,BR,1650939111
Broken Hill,-31.95,141.4333,58.48,96,100,16.62,AU,1650939272
Chara,56.9064,118.2631,28.17,53,100,4.21,RU,1650939272
Hantsport,45.0668,-64.1654,46.42,87,100,1.01,CA,1650939273
Aswān,24.0934,32.907,77.72,25,14,8.34,EG,1650939273
Teeli,51.0333,90.2333,36.28,34,100,1.92,RU,1650939273
Altay,47.8667,88.1167,42.03,62,100,2.1,CN,1650939274
Bereda,43.2686,-7.5406,50.58,100,96,0.94,ES,1650939112
Brae,60.3964,-1.353,43.77,70,100,15.35,GB,1650939274
Kattivākkam,13.2167,80.3167,86.09,90,6,11.77,IN,1650939274
Mount Gambier,-37.8333,140.7667,71.06,40,100,9.33,AU,1650939275
Shingū,33.7333,135.9833,70.65,96,100,6.96,JP,1650939126
Eureka,40.8021,-124.1637,60.75,82,100,7,US,1650939275
Espinal,4.1492,-74.8843,71.96,89,100,0.98,CO,1650939275
Bitung,1.4451,125.1824,88.65,67,62,3.44,ID,1650939276
Bowen,-20.0167,148.2333,75.38,88,100,16.31,AU,1650939276
Port Keats,-14.25,129.55,90.43,50,96,7.67,AU,1650939276
Ascension,30.2169,-90.9001,70.07,95,40,0,US,1650939276
Bambanglipuro,-7.95,110.2833,84.15,70,71,2.35,ID,1650939073
Balibago,15.1624,120.5954,90.12,58,75,4.61,PH,1650939277
Bonthe,7.5264,-12.505,79.9,89,100,7.99,SL,1650939038
Bengkulu,-3.8004,102.2655,80.01,74,100,3.83,ID,1650939058
Mukdahan,16.5833,104.5,93.02,48,8,10.96,TH,1650939277
Tomakomai,42.6369,141.6033,61.18,71,75,23.02,JP,1650939278
Suntar,62.1444,117.6319,32.88,71,100,3,RU,1650939136
Ténenkou,14.4572,-4.9169,82.65,18,0,9.35,ML,1650939278
Peniche,39.3558,-9.3811,58.1,89,66,9.13,PT,1650939278
Walvis Bay,-22.9575,14.5053,62.4,67,0,6.62,NA,1650939278
Amursk,50.2261,136.8994,37.24,69,100,16.26,RU,1650939279
Angoche,-16.2325,39.9086,76.78,89,66,4.18,MZ,1650939279
Mayo,38.8876,-76.5119,61.21,86,100,6.91,US,1650939279
Duku,11.2361,4.9073,84.67,46,61,7.02,NG,1650939280
Nara,34.6851,135.8049,73.49,60,100,7.81,JP,1650939280
Tual,-5.6667,132.75,82.47,75,97,3.27,ID,1650939280
Snezhnogorsk,69.1933,33.2531,26.38,85,100,24.52,RU,1650939280
Tura,25.5198,90.2201,80.89,68,0,5.3,IN,1650939281
Chivacoa,10.1603,-68.895,73.29,94,90,4.76,VE,1650939281
Flin Flon,54.7682,-101.865,22.19,85,3,3.98,CA,1650939282
Khovd,48.0056,91.6419,35.76,25,98,3.24,MN,1650939282
Inzhavino,52.3185,42.4937,51.8,89,85,7.45,RU,1650939282
